city_name	id	he	en	ru	ar	es	area	countdown	lat	lng
אבו סנאן	1470	אבו סנאן	Abu Snan	Абу Снан	ابو سنان	Abu Snan	1	30	32.958	35.172
אבו קרינאת	92	אבו קרינאת והפזורה	Abu Qrenat and the Bedouin Diaspora	Абу Кренат и диаспора	أبو كرينات وضواحيها	Abu Qrenat y la Diáspora Beduina	2	90	31.1031	34.952
אבו-גוש	511	אבו-גוש	Abu Ghosh	Абу-Гош	ابو غوش	Abu Ghosh	3	90	31.8063	35.1092
אבו תלול	103	אבו-תלול והפזורה	Abu Talul and the Bedouin Diaspora	Абу Талуль и диаспора	أبو تلول وضواحيها	Abu Talul y la Diáspora Beduina	2	90	31.1907	34.9161
אבטליון	1363	אבטליון	Avtalion	Авталион	افتليون	Avtalion	16	60	32.8358	35.3504
אביאל	1065	אביאל	Aviel	Авиэль	أفيئيل	Aviel	5	90	32.5313	34.9935
אביבים	1604	אביבים	Avivim	Авивим	أفيفيم	Avivim	6	0	33.0894	35.4703
אביגדור	373	אביגדור	Avigdor	Авигдор	افيغدور	Avigdor	7	45	31.7119	34.7404
אביחיל	940	אביחיל	Avihail	Авихайль	افيحايل	Avijail	9	90	32.3507	34.8712
אביעזר	359	אביעזר	Aviezer	Авиэзер	افيعزير	Aviezer	3	90	31.682	35.0188
אבירים	1557	אבירים	Abirim	Абирим	أفيريم	Abirim	6	0	33.0381	35.286
אבן יהודה	891	אבן יהודה	Even Yehuda	Эвен Иеуда	ايفين يهودا	Even Yehuda	9	90	32.2766	34.8851
אבן מנחם	1588	אבן מנחם	Even Menachem	Эвен Менахем	إيفين مناحيم	Even Menachem	6	0	33.0751	35.2952
אבן ספיר	443	אבן ספיר	Even Sapir	Эвен Сапир	ايفين سفير	Even Sapir	32	90	31.7625	35.135
אבן שמואל	278	אבן שמואל	Even Shmuel	Эвен Шмуэль	ايفين شموئيل	Even Shmuel	7	30	31.5764	34.763
אבני איתן	1359	אבני איתן	Avnei Eitan	Авней Эйтан	أفني ايتان	Avnei Eitan	10	0	32.8248	35.7658
אבני חפץ	911	אבני חפץ	Avnei Hefetz	Авней Хефец	أفني حيفتس	Avnei jefetz	11	90	32.2846	35.0746
אבנת	372	אבנת	Avnat	Авнат	ايفنات	Avnat	12	90	31.679	35.4369
אבשלום	109	אבשלום	Avshalom	Авшалом	افيشالوم	Avshalom	13	15	31.1954	34.3312
אדורה	271	אדורה	Adora	Адора	ادورا	Adora	14	90	31.5522	35.0176
אדוריים	1883	אדוריים	Adorayim	Адораим	أدورايم	Adorayim	14	90	31.4827	35.0436
אדמית	1592	אדמית	Idmit	Идмит	أدميت	Idmit	6	0	33.0788	35.2095
אדרת	339	אדרת	Aderet	Адерет	ادرت	Aderet	3	90	31.6597	34.9944
אודים	889	אודים	Udim	Удим	اوديم	Udim	9	90	32.2669	34.847
אודם	1639	אודם	Odem	Одем	اودم	Odem	28	0	33.1934	35.7496
בית ירח	1239	בית ירח	Beit Yerah	Бейт Йерах	بيت يرح	Beit Yeraj	4	60	32.7144	35.574
אום אל פחם	1047	אום אל פחם	umm al-Fahm	Ум аль Фахм	ام الفحم	umm al-Fajem	15	90	32.5171	35.1485
אום אל קוטוף	1015	אום אל קוטוף	Umm al-Qutuf	Ум аль Кутуф	ام القطف	Umm al-Qutuf	15	90	32.4681	35.0592
אום אל-גנם	1187	אום אל-גנם	Umm al-Ghanam	Ум аль Ганам	ام الغنم	Umm al-Ghanam	34	60	32.6867	35.3903
אום בטין	144	אום בטין והפזורה	Umm Batin and the Bedouin Diaspora	Ум Батин и диаспора	أم بطين وضواحيها	Umm Batin y la Diáspora Beduina	24	90	31.2694	34.8811
אופקים	155	אופקים	Ofakim	Офаким	أوفكيم	Ofakim	17	45	31.3113	34.6228
אור הגנוז	1538	אור הגנוז	Or HaGanuz	Ор ха-Гануз	أور هغنوز	Or HaGanuz	1	30	33.0052	35.4467
אור הנר	266	אור הנר	Or HaNer	Ор ха-Нер	أور هنير	Or HaNer	13	15	31.5562	34.6023
אור יהודה	716	אור יהודה	Or Yehuda	Ор Иеуда	أور يهودا	Or Yehuda	18	90	32.0297	34.8562
אור עקיבא	1044	אור עקיבא	Or Akiva	Ор Акива	أور عكيفا	Or Akiva	5	90	32.51	34.9204
אורה	429	אורה	Ora	Ора	أورة	Ora	32	90	31.7521	35.1502
אורון תעשייה ומסחר	1769	אורון תעשייה ומסחר	Oron Industry and Commerce	Орон Промышленность и Комм	أورون صناعة وتجارة	Oron Industry and Commerce	2	90	30.9115	35.0177
אורות	407	אורות	Orot	Орот	أوروت	Orot	7	45	31.74176	34.734758
אורטל	1606	אורטל	Ortal	Орталь	أورطال	Ortal	28	0	33.0862	35.7587
אורים	158	אורים	Urim	Урим	أوريم	Urim	17	30	31.3041	34.5249
אורנים	1216	אורנים	Oranim	Ораним	أورنيم	Oranim	34	60	32.7112	35.1096
אורנית	804	אורנית	Oranit	Оранит	أورنيت	Oranit	9	90	32.1319	34.9908
אושה	1319	אושה	Usha	Уша	أوشة	Usha	19	60	32.7965	35.1146
אזור	709	אזור	Azor	Азор	آزور	Azor	18	90	32.0296	34.7996
אזור תעשייה אכזיב מילואות	1562	אזור תעשייה אכזיב מילואות	Achziv Miluot Industrial Zone	Промзона Ахзив Милуот	المنطقة الصناعية أخزيف ميل	Area Industrial Achziv Miluot	6	0	33.0684	35.1102
אזור תעשייה אלון התבור	1141	אזור תעשייה אלון התבור	Alon HaTavor Industrial Zone	Промзона Алон ха-Тавор	المنطقة الصناعية ألون هتاف	Alon HaTavor Industrial Zone	34	60	32.6345	35.3603
אזור תעשייה אפק ולב הארץ	792	אזור תעשייה אפק ולב הארץ	"Afek and Lev Ha""aretz Industrial Zone"	Промзона Афек и Лев ха-Арец	المنطقة الصناعية أفيك وليف	"Area Industrial Afek and Lev Ha""aretz"	20	90	32.10799	34.953088
אזור תעשייה באר טוביה	384	אזור תעשייה באר טוביה	Be'er Tuvia Industrial Zone	Промзона Беэр Тувья	المنطقة الصناعية بئير طوبي	Be'er Tuvia Area Industrial	7	45	31.7249	34.751
אזור תעשייה בני יהודה	1343	אזור תעשייה בני יהודה	Bnei Yehuda Industrial Zone	Промзона Бней Йехуда	المنطقة الصناعية بني يهودا	Area Industrial Bnei Yehuda	10	0	32.8023	35.7156
אזור תעשייה בר-לב	1415	אזור תעשייה בר-לב	Bar Lev Industrial Zone	Промзона Бар-Лев	المنطقة الصناعية بار- ليف	Area industral Bar Lev	1	60	32.9063	35.1948
אזור תעשייה בראון	883	אזור תעשייה בראון	Bar On Industrial Zone	Промзона Бар Он	المنطقة الصناعية برأون	Area Industrial Bar On	11	90	32.2488	35.1681
אזור תעשייה ברוש	399	אזור תעשייה ברוש	Brosh Industrial Zone	Промзона Брош	المنطقة الصناعية بروش	Area Industrial Brosh	3	90	31.7331	34.9594
אזור תעשייה דימונה	87	אזור תעשייה דימונה	Dimona Industrial Zone	Промзона Димона	المنطقة الصناعية ديمونا	Area Industrial Dimona	2	90	31.0646	35.0188
אזור תעשייה הדרומי אשקלון	305	אזור תעשייה הדרומי אשקלון	Ashkelon Southern Industrial Zone	Южная промзона Ашкелона	المنطقة الصناعية الجنوبية	Ashkelon Area Industrial Del Sur	21	30	31.6361	34.5545
אזור תעשייה הר טוב - צרעה	441	אזור תעשייה הר טוב - צרעה	Har Tuv - Tzora Industrial Zone	Промзона Хар Тув - Цроа	المنطقة الصناعية - تسارعا	Area Industrial Har Tuv - Tzora	3	90	31.7728	34.9981
אזור תעשייה חבל מודיעין	704	אזור תעשייה חבל מודיעין	Hevel Modi'in Industrial Zone	Промзона Хевель Модиин	المنطقة الصناعية حيبيل مود	Hevel Modi'in Industrial Zone	20	90	32.0131	34.9595
אזור תעשייה חצור הגלילית	1507	אזור תעשייה חצור הגלילית	Hatzor HaGlilit Industrial Zone	Промзона Хацор ха-Глилит	المنطقة الصناعية حتسور هجل	Area Industrial Hatzor HaGlilit	1	30	32.9842	35.5521
אזור תעשייה טירה	1758	אזור תעשייה טירה	Tira Industrial Zone	Промзона Тира	المنطقة الصناعية طيره.	Tira Industrial Zone	9	90	32.2267	34.9791
אזור תעשייה יקנעם עילית	1150	אזור תעשייה יקנעם עילית	Yokneam Illit Industrial Zone	Промзона Йокнеам Илит	المنطقة الصناعية يوكنعام ع	Area Industrial Yokneam Illit	15	90	32.6639	35.105
אזור תעשייה כנות	483	אזור תעשייה כנות	Kannot Industrial Zone	Промзона Каннот	المنطقة الصناعية كنوت	Area Industrial Kannot	7	60	31.8013	34.7591
אזור תעשייה כרמיאל	1435	אזור תעשייה כרמיאל	Carmiel Industrial Zone	Промзона Кармиэль	المنطقة الصناعية كرميئيل	Area Industrial Carmiel	1	30	32.9263	35.3191
אזור תעשייה מבוא כרמל	1125	אזור תעשייה מבוא כרמל	Mevo Carmel Industrial Zone	Промзона Мево Кармель	المنطقة الصناعية مافو الكر	Mevo Carmel Area Industrial	15	90	32.6207	35.078
אזור תעשייה מבואות הגלבוע	1096	אזור תעשייה מבואות הגלבוע	Mevuot HaGilboa Industrial Zone	Промзона Мевуот ха-Гильбоа	المنطقة الصناعية مبؤوت هجل	Area Industrial Mevuot HaGilboa	34	60	32.5672	35.2676
אזור תעשייה מישור אדומים	478	אזור תעשייה מישור אדומים	Mishor Edomim Industrial Zone	Промзона Мишор Адумим	المنطقة الصناعية ميشور أدو	Mishor Edomim Industrial Zone	14	90	31.7925	35.335
אזור תעשייה מיתרים	199	אזור תעשייה מיתרים	Meitarim Industrial Zone	Промзона Мейтарим	المنطقة الصناعية ميتاريم	Area Industrial Meitarim	14	90	31.3726	35.0055
אזור תעשייה נ.ע.מ	207	אזור תעשייה נ.ע.מ	Noam Industrial Zone	Промзона Ноам	المنطقة الصناعية ن.ع.م	Noam Area Industrial	17	30	31.4138	34.6149
אזור תעשייה ניר עציון	1730	אזור תעשייה ניר עציון	Nir Etzion Industrial Zone	Промзона Нир Эцион	مجلس اقلمي نير عتسيون	Area Industrial Nir Etzion	22	60	32.7019	34.973
אזור תעשייה נשר - רמלה	1799	אזור תעשייה נשר - רמלה	Nesher Industrial Zone (Ramla)	Промзона Нешер (Рамла)	المنطقة الصناعية نيشر (الرم	Area Industrial Nesher (Ramla)	23	90	31.9179	34.892
אזור תעשייה עד הלום	425	אזור תעשייה עד הלום	Ad Halom Industrial Zone	Промзона Ад Халом	المنطقة الصناعية عاد هلوم	Area Industrial Ad Halom	7	45	31.7581	34.6559
אזור תעשייה עידן הנגב	196	אזור תעשייה עידן הנגב	Idan HaNegev Industrial Zone	Промзона Идан ха-Негев	المنطقة الصناعية عيدان الن	Area Industrial Idan HaNegev	24	45	31.3808	34.786
אזור תעשייה עמק חפר	972	אזור תעשייה עמק חפר	Emek Heffer Industrial Zone	Промзона Эмек Хефер	المنطقة الصناعية عيمك حيفر	Emek Heffer Area Industrial	9	90	32.4049	34.8967
אזור תעשייה צ.ח.ר	1496	אזור תעשייה צ.ח.ר	Tzahar Industrial Zone	Промзона Цахар	المنطقة الصناعية تساحار	Area Industrial Tzajar	1	30	32.9705521	35.5646455
אזור תעשייה צבאים	1079	אזור תעשייה צבאים	Zvaim Industrial Zone	Промзона Цваим	المنطقة الصناعية تسفئيم	Area Industrial Tzvaim	25	60	32.5425	35.5031
אזור תעשייה ציפורית	1278	אזור תעשייה ציפורית	Tziporit Industrial Zone	Промзона Ципорит	المنطقة الصناعية تسيبوريت	Tziporit Industrial Zone	34	60	32.7595	35.3161
אזור תעשייה צמח	1212	אזור תעשייה צמח	Tzemach Industrial Zone	Промзона Цемах	المنطقة الصناعية تسيمح	Area Industrial Tzemaj	4	30	32.7033	35.5869
אזור תעשייה צפוני אשקלון	333	אזור תעשייה צפוני אשקלון	Ashkelon Northern Industrial Zone	Северная промзона Ашкелона	المنطقة الصناعية الشمالية	Area Industrial Ashkelon Northern	21	30	31.6647	34.5981
אזור תעשייה קדמת גליל	1313	אזור תעשייה קדמת גליל	Kidmat Galil Industrial Zone	Промзона Кидмат Галиль	المنطقة الصناعية كيدمات جل	Kidmat Galil Area Industrial	4	60	32.7854	35.4631
אזור תעשייה קיסריה	1020	אזור תעשייה קיסריה	Caesarea Industrial Zone	Промзона Кейсария	المنطقة الصناعية قيساريا	Area Industrial Caesarea	5	90	32.4865	34.9464
אזור תעשייה קריית גת	284	אזור תעשייה קריית גת	Kiryat Gat - Industrial Zone	Кирьят Гат - Промзона	اكريات جات - لمنطقة الصناعي	Kiryat Gat - Industrial Zone	7	45	31.5962	34.7848
אזור תעשייה רגבים	1058	אזור תעשייה רגבים	Regavim Industrial Zone	Промзона Регавим	المنطقة الصناعية رجافيم	Area Industrial Regavim	5	90	32.5217	35.024
אזור תעשייה רותם	89	אזור תעשייה רותם	Rotem Industrial Zone	Промзона Ротем	المنطقة الصناعية روتم	Area Industrial Rotem	2	90	31.06	35.1949
אזור תעשייה רמת דלתון	1550	אזור תעשייה רמת דלתון	Ramat Dalton Industrial Zone	Промзона Рамат Дальтон	المنطقة الصناعية رمات دلتو	Ramat Dalton Area Industrial	6	0	33.0279	35.4768
אזור תעשייה שחורת	10	אזור תעשייה שחורת	Shchoret Industrial Zone	Промзона Шхорет	المنطقة الصناعية شحوروت	Area Industrial Shjoret	26	30	29.5979	34.9719
אזור תעשייה שער בנימין	584	אזור תעשייה שער בנימין	Sha'ar Binyamin Industrial Zone	Промзона Шаар Биньямин	المنطقة الصناعية شاعار بني	Area Industrial Sha'ar Binyamin	11	90	31.8654	35.2617
אזור תעשייה שער נעמן	1389	אזור תעשייה שער נעמן	Sha'ar Na'aman Industrial Zone	Промзона Шаар Нааман	المنطقة الصناعية شاعر نعما	Area Industrial Sha'ar Na'aman	1	60	32.8805	35.0976
אזור תעשייה תימורים	386	אזור תעשייה תימורים	Timorimg Industrial Zone	Промзона Тиморим	المنطقة الصناعية تيموريم	Area Industrial Timorimg	7	45	31.7242	34.7615
אזור תעשייה תרדיון	1386	אזור תעשייה תרדיון	Teradion Industrial Zone	Промзона Терадион	المنطقة الصناعية ترديون	Area Industrial Teradion	16	60	32.8677	35.2731
אחווה	419	אחווה	Achva	Ахва	أحفا	Ajva	7	45	31.7429	34.7678
אחוזם	264	אחוזם	Ahuzam	Ахузам	أحوزام	Ajuzam	7	30	31.5527	34.7701
אחוזת ברק	1147	אחוזת ברק	Ahuzat Barak	Ахузат Барак	أحوزات براك	Ajuzat Barak	34	60	32.6431	35.3389
אחיה	765	אחיה	Achita	Ахия	أحيه	Ajita	11	90	32.0605	35.3273
אחיהוד	1414	אחיהוד	Achihud	Ахихуд	أحيهود	Ajihud	1	60	32.9074	35.1717
אחיטוב	970	אחיטוב	Ahituv	Ахитув	أحيطوف	Ajitov	9	90	32.3877	34.9908
אחיסמך	1811	אחיסמך	Ahisemech	Ахисемех	أحيسيمخ	Ajisemej	23	90	31.9319	34.9086
אחיעזר	1849	אחיעזר	Achiezer	Ахиэзер	أحيعزر	Ajiezer	23	90	31.9817	34.8718
איבטין	1272	איבטין	Ibtin	Ибтин	ابطن	Ibtin	19	60	32.76	35.1146
אייל	864	אייל	Eyal	Эяль	أيال	Eyal	9	90	32.211823	34.979862
איילת השחר	1552	איילת השחר	Ayelet HaShachar	Айелет ха-Шахар	أييلت هشاحر	Ayelet HaShajar	1	30	33.0211	35.5767
אילון	1571	אילון	Eilon	Эйлон	ايلون	Eilon	6	0	33.0625	35.2192
אילות	9	אילות	Eilot	Эйлот	ايالوت	Eilot	26	30	29.5805	34.963
אילניה	1265	אילניה	Ilania	Илания	ايلانيا	Ilania	34	60	32.7539	35.4082
אילת	4	אילת	Eilat	Эйлат	أييلت	Eilat	26	30	29.5577	34.9519
אירוס	1807	אירוס	Irus	Ирус	ايروس	Irus	23	90	31.9286	34.7766
איתמר	852	איתמר	Itamar	Итамар	إيتمار	Itamar	11	90	32.1739	35.308
איתן	273	איתן	Eitan	Эйтан	ايتان	Eitan	7	30	31.5722	34.7479
אכסאל	1178	אכסאל	Iksal	Иксаль	اكسال	Iksal	34	60	32.6821	35.3207
אל סייד	1921	אל סייד והפזורה	AlSayid and the Bedouin Diaspora	Эль Сайид и диаспора	السيد وضواحيها	AlSayid y la Diáspora Beduina	24	90	31.2864	34.9079
אל עזי	387	אל עזי	Al Azi	Аль Ази	ال عازي	Al Azi	7	45	31.7189	34.8143
אל עמארני, אל מסק	1929	אל עמארני, אל מסק	El Amrani, El Masaq	Аль-Амарни, Аль-Меск	العمارنه ، المسك	El Amrani, El Masaq	27	90	30.7983	35.2346
אל עריאן	1046	אל עריאן	Al Arian	Аль Ариан	العريان	Al Arian	15	90	32.4981	35.1251
אל פורעה	115	אל פורעה והפזורה	El For'eh and the Bedouin Diaspora	Эль Фура и диаспора	الفرعة وضواحيها	El For'eh y la Diáspora Beduina	2	90	31.2198	35.1642
אל רום	1635	אל רום	El Rom	Эль Ром	الروم	El Rom	28	0	33.1805	35.7701
אל-ח'וואלד מערב	1282	אל-חוואלד מערב	Al Khawaled - West	Аль Хавалед - запад	الخوالد غرب	Al Jawaled - Oeste	34	60	32.771	35.1363
אלומה	323	אלומה	Aluma	Алума	ألوما	Aluma	7	45	31.652	34.7429
אלומות	1222	אלומות	Alumot	Алумот	ألوموت	Alumot	4	60	32.7066	35.5461
אלון	556	אלון	Alon	Алон	ألون	Alon	14	90	31.8334	35.3536
אלון הגליל	1276	אלון הגליל	Alon HaGalil	Алон а-Галиль	ألون هجليل	Alon HaGalil	34	60	32.7569	35.2203
אלון מורה	877	אלון מורה	Elon Moreh	Алон ха-Море	ألون موريه	Elon Moreh	11	90	32.2344	35.3312
אלון שבות	341	אלון שבות	Alon Shvut	Алон Швут	ألون شابوت	Alon Shvut	14	90	31.6549	35.1253
אלוני אבא	1231	אלוני אבא	Alonei Abba	Алоней Аба	ألوني أبا	Alonei Abba	34	60	32.7309	35.172
אלוני הבשן	1569	אלוני הבשן	Alonei HaBashan	Алоней а-Башан	ألوني هبشان	Alonei HaBashan	10	0	33.0441	35.8385
אלוני יצחק	1054	אלוני יצחק	Alonei Itzhak	Алоней Ицхак	ألوني يتسحاق	Alonei Itzjak	5	90	32.51	35.0052
אלונים	1217	אלונים	Alonim	Алоним	ألونيم	Alonim	34	60	32.7215	35.1434
אלי עד	1344	אלי עד	Eliad	Эли Ад	إلي عاد	Eliad	10	0	32.8066	35.7366
אליאב	257	אליאב	Eliav	Элиав	أليآف	Eliav	14	60	31.5302	34.9284
אליכין	980	אליכין	Elyachin	Эльяхин	اليخين	Elyajin	9	90	32.4077	34.925
אליפז ומכרות תמנע	15	אליפז ומכרות תמנע	Elipaz and Timna Mines	Элифаз и Копи Тимны	إيليفازوتمنع	Elipaz y las Minas de Timna	27	90	29.7882	35.0032
אליפלט	1466	אליפלט	Elifelet	Элифелет	إليفلت	Elifelet	1	30	32.9478	35.5485
אליקים	1131	אליקים	Elyakim	Эльяким	الياكيم	Elyakim	15	90	32.6333	35.0676
אלישיב	961	אלישיב	Elyashiv	Эльяшив	أليشيف	Elyashiv	9	90	32.3802	34.9099
אלישמע	827	אלישמע	Elishema	Элишема	أليشمع	Elishema	9	90	32.1548	34.9305
אלמגור	1432	אלמגור	Almagor	Альмагор	الماغور	Almagor	10	30	32.9127	35.6023
אלמוג	499	אלמוג	Almog	Альмог	ألموغ	Almog	12	90	31.79	35.462
אלעד	735	אלעד	Elad	Эльад	ايلعاد	Elad	20	90	32.0495	34.9507
אלעזר	351	אלעזר	Elazar	Эльазар	العيزر	Elazar	14	90	31.6597	35.1431
אלפי מנשה	844	אלפי מנשה	Alfei Menashe	Алфей Менаше	ألفي مناشيه	Alfei Menashe	9	90	32.1706	35.0149
אלקוש	1547	אלקוש	Alkosh	Алькош	الكوش	Alkosh	6	0	33.0343	35.3263
אלקנה	794	אלקנה	Elkana	Элькана	الكنا	Elkana	9	90	32.1106	35.0321
אמונים	406	אמונים	Emunim	Эмуним	أمونيم	Emunim	7	45	31.7439	34.6745
אמירים	1454	אמירים	Amirim	Амирим	أميريم	Amirim	1	30	32.9374	35.4504
אמנון	1422	אמנון	Amnon	Амнон	أمنون	Amnon	1	30	32.905	35.5711
אמץ	955	אמץ	Amatz	Амац	أومتس	Amatz	9	90	32.3692	34.9931
אמציה	256	אמציה	Amatzia	Амация	أمتسيا	Amatzia	14	60	31.5312	34.9145
אניעם	1488	אניעם	Aniam	Аниам	أنيعام	Aniam	10	15	32.9566	35.7397
אעבלין	1339	אעבלין	Ibillin	Иблин	إعبلين	Ibillin	16	60	32.8218	35.1901
אפיק	1314	אפיק	Afik	Афик	أفيك	Afik	10	0	32.7794	35.703
אפיקים	1188	אפיקים	Afikim	Афиким	أفيكيم	Afikim	4	60	32.6806	35.5777
אפק	1352	אפק	Afek	Афек	أفيك	Afek	1	60	32.8383	35.1278
אפרת	329	אפרת	Efrat	Эфрат	إفرات	Efrat	14	90	31.6536	35.1499
ארבל	1342	ארבל	Arbel	Арбель	أرابل	Arbel	4	60	32.8127	35.4826
ארגמן	853	ארגמן	Argaman	Аргаман	أرجمان	Argaman	29	90	32.1733	35.5223
ארז	263	ארז	Erez	Эрез	إيرز	Erez	13	15	31.5597	34.565
אריאל	795	אריאל	Ariel	Ариэль	ارئييل	Ariel	11	90	32.1046	35.1745
ארסוף	862	ארסוף	Arsuf	Арсуф	أرسوف	Arsuf	9	90	32.2128	34.816
אשבול	225	אשבול	Eshbol	Эшбол	أشبول	Eshbol	17	30	31.4455	34.6667
אשבל	1392	אשבל	Eshbal	Эшбаль	إشبال	Eshbal	16	60	32.877	35.306
אשדוד - א,ב,ד,ה	468	אשדוד - א,ב,ד,ה	Ashdod - Alef,Bet,Dalet,Heh	Ашдод - алеф,бет,далет,хей	أشدود - أ،ب،د، هـ	Ashdod - Alef,Bet,Dalet,Heh	7	45	31.8047	34.6469
אשדוד - איזור תעשייה צפוני	530	אשדוד - אזור תעשייה צפוני ונמל	Ashdod - Northern Industrial Zone And Port	Ашдод - Северная промышленная зона и порт	أشدود - المنطقة الصناعية الشمالية والميناء	Ashdod - Area Industrial Norte y puerto	7	45	31.8298	34.6602
אשדוד - ג,ו,ז	455	אשדוד - ג,ו,ז	Ashdod - Gimmel,Vav,Zain	Ашдод - гимел,вав,зайн	أشدود - ج، و، ز	Ashdod - Gimmel,Vav,Zain	7	45	31.7966	34.6579
אשדוד - ח,ט,י,יג,יד,טז	433	אשדוד - ח,ט,י,יג,יד,טז	Ashdod - Het,Tet,Yod,Yod Gimmel,Yod Dalet,Tet Zain	Ашдод - Хет,Тет,Йод,Йод Гиммель,Йод Далет,Тет Заин	أشدود - ح، ط، ي، ي ج،ي د، ط ز	Ashdod - Het,Tet,Yod,Yod Gimmel,Yod Dalet,Tet Zain	7	45	31.7778	34.6462
אשדוד -יא,יב,טו,יז,מרינה,סיט	432	אשדוד - יא,יב,טו,יז,מרינה,סיטי	Ashdod - Yod Alef,Yod Bet,Tet Vav,Yod Zain,Marina,City	Ашдод - Йод Алеф,Йод Бет,Тет Вав,Йод Заин,Марина,Сити	أشدود - ي أ، ي ب، ط و، ي ز، مري	Ashdod - Yod Alef,Yod Bet,Tet Vav,Yod Zain,Marina,City	7	45	31.7836	34.6332
אשדות יעקב איחוד	1161	אשדות יעקב איחוד	Ashdod Yacov Ichud	Ашдот Яаков Ихуд	أشدوت يعقوب إيحود	Ashdod Yacov Ichud	10	60	32.6588	35.5796
אשדות יעקב מאוחד	1168	אשדות יעקב מאוחד	Ashdot Yaakov Meuhad	Ашдот Яаков Меухад	أشدوت يعقوب مئوحاد	Ashdot Yaakov Meujad	10	60	32.6648	35.5828
אשחר	1399	אשחר	Eshchar	Эшхар	إشحار	Eshjar	16	60	32.8851	35.2996
אשכולות	203	אשכולות	Eshkolot	Эшколот	أشكولوت	Eshkolot	24	60	31.3912	34.9049
אשל הנשיא	168	אשל הנשיא	Eshel HaNassi	Эшель а-Наси	إيشل هنسي	Eshel HaNassi	17	45	31.3268	34.6975
אשלים	1774	אשלים	Ashalim	Ашалим	اشليم	Ashalim	2	90	30.9642	34.6997
אשקלון - דרום	1932	אשקלון - דרום	Ashkelon - South	Ашкелон - Юг	أشكلون - جنوب	Ashkelon - Sur	21	30	31.661	34.5688
אשקלון - צפון	320	אשקלון - צפון	Ashkelon - North	Ашкелон - север	أشكلون - شمال	Ashkelon - norte	21	30	31.686	34.5839
אשרת	1482	אשרת	Oshrat	Ошрат	أوشرات	Oshrat	1	30	32.9716	35.1557
אשתאול	462	אשתאול	Eshtaol	Эштаоль	اشتوئيل	Eshtaol	3	90	31.7804	35.0101
אתר דודאים	1752	אתר דודאים	Duda'im Site	Центр для посетителей Дуда	موقع دود أيم	Sitio Duda'im	24	45	31.3122	34.7338
אתר ההנצחה גולני	1715	אתר ההנצחה גולני	Golani Memorial Site	Мемориал Голани	موقع تذكاري في غولاني	Sitio conmemorativo Golani	4	60	32.7774	35.4103
באקה אל גרבייה	982	באקה אל גרבייה	bqa al-Gharbiyye	Бака аль Гарбия	باقة الغربية	bqa al-Gharbiyye	15	90	32.4229	35.0358
באר אורה	12	באר אורה	Be'er Ora	Беэр Ора	بئير أوره	Be'er Ora	27	90	29.7102	34.9872
באר גנים	362	באר גנים	Be'er Ganim	Беэр Ганим	بئير جانيم	Be'er Ganim	21	30	31.7004	34.6109
באר טוביה	382	באר טוביה	Be'er Tuvia	Беэр Тувья	بئير طوبيا	Be'er Tuvia	7	45	31.7371	34.7256
באר יעקב	1809	באר יעקב	Be'er Yacov	Беэр Яаков	بئير يعقوب	Be'er Yacov	23	90	31.9435	34.839
באר מילכה	1771	באר מילכה	Be'er Milka	Беэр Милка	بئير ميلخا	Be'er Milka	2	60	30.9341	34.4056
באר שבע - דרום	1749	באר שבע - דרום	Beer Sheva - South	Беэр шева - Юг	بئر السبع - جنوب	Beer Sheva - Sur	24	60	31.2413	34.7711
באר שבע - מזרח	124	באר שבע - מזרח	Beer Sheva - East	Беэр Шева - восток	بئر السبع - شرق	Beer Sheva - Este	24	60	31.2345	34.8201
באר שבע - מערב	141	באר שבע - מערב	Beer Sheva - West	Беэр Шева - запад	بئر السبع - غرب	Beer Sheva - Oeste	24	60	31.2612	34.7794
באר שבע - צפון	1748	באר שבע - צפון	Beer Sheva - North	Беэр Шева - север	بئر السبع - شمال	Beer Sheva - Norte	24	60	31.2698	34.8151
בארות יצחק	727	בארות יצחק	Be'erot Itzhak	Беэрот Ицхак	بئروت يتسحاق	Be'erot Itzhak	20	90	32.042	34.9102
בארותיים	923	בארותיים	Be'erotaim	Беэротаим	بئروتايم	Be'erotaim	9	90	32.321	34.9834
בארי	212	בארי	Be'eri	Беэри	بئيري	Be'eri	13	15	31.4245	34.4926
בוסתן הגליל	1458	בוסתן הגליל	Bustan HaGalil	Бустан ха-Галиль	بستان الجليل	Bustan HaGalil	1	30	32.9486	35.0807
בועיינה-נוג'ידאת	1328	בועיינה-נוגידאת	Bu'eine Nujeidat	Буэйне-Нуджейдат	البعنة النجيدات	Bu'eine Nujeidat	16	60	32.8077	35.3653
בוקעתא	1641	בוקעתא	Buq'ata	Буката	بقعاثا	Buq'ata	28	0	33.2027	35.7768
בורגתה	927	בורגתה	Burgata	Бургата	بورجاتا	Burgata	9	90	32.326	34.9638
בחן	944	בחן	Bahan	Бахан	بلدة بوحن	Bajan	9	90	32.3518	35.0185
בטחה	173	בטחה	Bitha	Битха	بطحا	Bitja	17	45	31.3339	34.6343
ביצרון	470	ביצרון	Bitzaron	Бицарон	بيتسرون	Bitzaron	7	60	31.795	34.7293
ביר אלמכסור	1285	ביר אלמכסור	Bir al-Maksur	Бир аль-Максур	بئر المكسور	Bir al-Maksur	16	60	32.7773	35.2206
'ביר הדאג	78	ביר הדאג והפזורה	Bir Hadaj and the Bedouin Diaspora	Бир Хададж и диаспора	بئر هداج وضواحيها	Bir Hadaj y la Diáspora Beduina	2	90	31.0302	34.7169
ביריה	1503	ביריה	Biriyeh	Бирия	بيريه	Biriyeh	1	30	32.9781	35.5031
בית אורן	1240	בית אורן	Beit Oren	Бейт Орен	بيت أورن	Beit Oren	22	60	32.7316	35.0063
בית אל	1822	בית אל	Beit El	Бейт Эль	بيت إيلا	Beit El	11	90	31.9416	35.2227
בית אלעזרי	544	בית אלעזרי	Beit Elazari	Бейт Эльазари	بيت اليعزري	Beit Elazari	7	60	31.8447	34.8066
בית אלפא וחפציבה	1062	בית אלפא וחפציבה	Beit Alfa and Heftziba	Бейт Альфа и Хефциба	بيت ألفا وحفتسفا	Beit Alfa and Heftziba	25	60	32.5187	35.4262
בית אריה	728	בית אריה	Beit Arie	Бейт Арье	بيت أريه	Beit Arie	11	90	32.0401	35.0495
בית ברל	858	בית ברל	Beit Berl	Бейт Берл	بيت بيرل	Beit Berl	9	90	32.1997	34.9261
בית ג'אן	1474	בית גאן	Beit Jann	Бейт Джан	بيت جن	Beit Jann	1	30	32.9657	35.3813
בית גוברין	301	בית גוברין	Beit Guvrin	Бейт Говрин	بيت جوبرين	Beit Guvrin	3	60	31.6129	34.8956
בית גמליאל	558	בית גמליאל	Beit Gamliel	Бейт Гамлиэль	بيت جمليئل	Beit Gamliel	7	60	31.8561	34.7609
בית דגן	1860	בית דגן	Beit Dagan	Бейт Даган	بيت دجان	Beit Dagan	23	90	32.0018	34.8297
בית הגדי	1760	בית הגדי	Beit HaGdi	Бейт ха-Гди	وبيت هجدي	Beit HaGdi	17	30	31.4228	34.6079
בית הלוי	943	בית הלוי	Beit HaLevi	Бейт ха-Леви	بيت هليفي	Beit HaLevi	9	90	32.3516	34.9304
בית הלל	1640	בית הלל	Beit Hillel	Бейт Хилель	بيت هيلل	Beit Hillel	6	0	33.2088	35.6065
בית העמק	1481	בית העמק	Beit HaEmek	Бейт ха-Эмек	بيت هعيمك	Beit HaEmek	1	30	32.971	35.1453
בית הערבה	529	בית הערבה	Beit HaArava	Бейт ха-Арава	بيت هعاربا	Beit HaArava	12	90	31.8078	35.4764
בית השיטה	1087	בית השיטה	Beit HaShita	Бейт ха-Шита	بيت هشيتا	Beit HaShita	25	60	32.5509	35.4394
בית זית	466	בית זית	Beit Zayit	Бейт Зайт	بيت زيت	Beit Zayit	32	90	31.7831	35.1611
בית זרע	1196	בית זרע	Beit Zera	Бейт Зера	بيت زيرع	Beit Zera	4	60	32.6893	35.5741
בית חגי	247	בית חגי	Beit Hagai	Бейт Хагай	بيت حاجاي	Beit Jagai	14	90	31.4925	35.0795
בית חורון	596	בית חורון	Beit Horon	Бейт Хорон	بيت حورون	Beit joron	11	90	31.8799	35.1241
בית חזון	965	בית חזון	Beit Hazon	Бейт Хазон	بيت حزون	Beit jazon	9	90	32.3872	34.9129
בית חלקיה	471	בית חלקיה	Beit Hilkia	Бейт Хилькия	بيت حلقية	Beit jilkia	7	60	31.793	34.8097
בית חנן	1806	בית חנן	Beit Hanan	Бейт Ханан	بيت حنان	Beit janan	23	90	31.9352	34.7756
בית חנניה	1064	בית חנניה	Beit Hanania	Бейт Ханания	بيت حنانيه	Beit Janania	5	90	32.5295	34.9267
בית חרות	958	בית חרות	Beit Herut	Бейт Херут	بيت حيروت	Beit jerut	9	90	32.3762	34.8738
בית חשמונאי	1780	בית חשמונאי	Beit Hashmonai	Бейт Хашмонаи	بيت حشمونائي	Beit jashmonai	23	90	31.8903	34.9176
בית יהושע	890	בית יהושע	Beit Yehoshua	Бейт Иешуа	بيت يهوشاع	Beit Yehoshua	9	90	32.2621	34.8654
בית יוסף	1094	בית יוסף	Beit Yossef	Бейт Йосеф	بيت يوسف	Beit Yossef	25	60	32.5587	35.5528
בית ינאי	959	בית ינאי	Beit Yannai	Бейт Яннай	بيت يناي	Beit Yannai	9	90	32.3817	34.8635
בית יצחק - שער חפר	925	בית יצחק - שער חפר	Beit Yithak - Sha'ar Hefer	Бейт Ицхак - Щаар Хефер	بيت يتسحاق- شاعار حيفر	Beit Yitjak - Sha'ar Hefer	9	90	32.3356	34.8895
בית יתיר	193	בית יתיר	Beit Yatir	Бейт Ятир	بيت يتير	Beit Yatir	14	90	31.3656	35.1113
בית לחם הגלילית	1245	בית לחם הגלילית	Bethlehem of Galilee	Бейт Лехем ха-Глилит	بيت ليحم هجليليت	Bethlejem de Galilea	34	60	32.7346	35.1913
בית מאיר	490	בית מאיר	Beit Meir	Бейт Меир	بيت مئير	Beit Meir	3	90	31.7948	35.0368
בית נחמיה	1852	בית נחמיה	Beit Nechemia	Беит Нехемия	بيت نحميا	Beit Nejemia	20	90	31.9771	34.9538
בית ניר	325	בית ניר	Beit Nir	Бейт Нир	بيت نير	Beit Nir	3	60	31.6476	34.8731
בית נקופה	512	בית נקופה	Beit Nekofa	Бейт Некофа	بيت نقوبا	Beit Nekofa	3	90	31.8044	35.1269
בית סוהר השרון	1756	בית סוהר השרון	HaSharon Prison	Тюрма а- Шарон	سجن هشرون	Prision HaSharon	9	90	32.2408	34.8848
בית סוהר מגידו	1755	בית סוהר מגידו	Megiddo Prison	Тюрма Магидо	سجن مجدو 	Prision Megiddo	15	90	32.5709	35.1898
בית סוהר נפחא	1757	בית סוהר נפחא	Nafha Prison	Тюрма Нефха	سجن نفحة	Prision Nafha	2	90	30.7265	34.7735
בית סוהר צלמון	1931	בית סוהר צלמון	Zalmon Prison	Мигдаль Тефен	سجن تسلمون	Zalmon Prison	16	60	32.8717	35.4474
בית סוהר קישון	1928	בית סוהר קישון	Kishon Prison	Кишонская тюрьма	سجن كيشون	Kishon Prison	22	60	32.7262	35.0915
בית סוהר שיטה וגלבוע	1754	בית סוהר שיטה וגלבוע	Shita and Gilboa Prison	Тюрьма Шита и Гильбоа	سجن شطا هجلبوع	Prision Shita y Gilboa	34	60	32.5476	35.4151
בית ספר אורט בנימינה	1073	בית ספר אורט בנימינה	Ort Binyamina	Орт Биньямина	مدرسة أورط بنيامينا	Ort Binyamina	5	90	32.5498	34.955
בית ספר שדה מירון	1722	בית ספר שדה מירון	Sdeh Meron School	Школа Сде Мирон	مدرسة سده ميرون	Colegio Sdeh Meron	6	0	33.0115	35.3922
בית עובד	1794	בית עובד	Beit Oved	Бейт Овед	بيت عوفيد	Beit Oved	23	90	31.9213	34.7749
בית עוזיאל	578	בית עוזיאל	Beit Uziel	Бейт Узиэль	بيت عوزيئيل	Beit Uziel	23	90	31.8701	34.9049
בית עזרא	394	בית עזרא	Beit Ezra	Бейт Эзра	بيت عزرا	Beit Ezra	7	45	31.7364	34.6575
בית עלמין תל רגב	1871	בית עלמין תל רגב	Tel Regev Cemetary	Бет Альмин Тель Регев	مقبرة تل ريجيف	Cementerio Tel Regev	19	60	32.7678	35.1219
בית עריף	1864	בית עריף	Beit Arif	Бейт Ариф	بيت عريف	Beit Arif	20	90	31.9954	34.9351
בית צבי	1214	בית צבי	Beit Zvi	Бейт Цви	بيت تسفي	Beit Zvi	22	60	32.7189	34.9697
בית קמה	227	בית קמה	Beit Kama	Бейт Кама	بيت كاما	Beit Kama	24	45	31.4466	34.7622
בית קשת	1234	בית קשת	Beit Keshet	Бейт Кешет	بيت كيشت	Beit Keshet	34	60	32.7184	35.395
בית רימון	1310	בית רימון	Beit Rimon	Бейт Римон	بيت ريمون	Beit Rimon	16	60	32.7818	35.3277
בית שאן	1042	בית שאן	Beit She'an	Бейт Шеан	بيسان	Beit She'an	25	60	32.4971	35.4973
בית שמש	412	בית שמש	Beit Shemesh	Бейт Шемеш	بيت شيمش	Beit Shemesh	3	90	31.747	34.9881
בית שערים	1185	בית שערים	Beit Shea'rim	Бейт Шеарим	بيت شعاريم	Beit Shea'rim	34	60	32.6965	35.1788
בית שקמה	311	בית שקמה	Beit Shikma	Бейт Шикма	بيت شيكما	Beit Shikma	21	30	31.6377	34.6101
ביתן אהרן	950	ביתן אהרן	Bitan Aharon	Бейт Аарон	بيت أهرون	Bitan Aharon	9	90	32.3649	34.8696
ביתר עילית	371	ביתר עילית	Beitar Illit	Бейтар Илит	بيتار عيليت	Beitar Illit	14	90	31.701	35.1119
בלפוריה	1139	בלפוריה	Balfuria	Бальфурия	بلفوريا	Balfuria	34	60	32.63	35.2963
בן זכאי	557	בן זכאי	Ben Zakai	Бен Закай	بن زكاي	Ben Zakai	7	60	31.8572	34.7274
בן עמי	1520	בן עמי	Ben Ami	Бен Ами	بن عامي	Ben Ami	6	0	33.0054	35.1222
בן שמן	1831	בן שמן	Ben Shemen	Бен Шемен	بن شيمن	Ben Shemen	23	90	31.9513	34.9198
בני ברק	754	בני ברק	Bnei Brak	Бней Брак	بني براك	Bnei Brak	18	90	32.0849	34.8352
בני דקלים	254	בני דקלים	Bnei Dkalim	Бней Дкалим	بني دكاليم	Bnei Dkalim	14	60	31.5172	34.917
בני דרום	500	בני דרום	Bnei Darom	Бней Даром	بني دروم	Bnei Darom	7	45	31.8209	34.6916
בני דרור	892	בני דרור	Bnei Dror	Бней Дрор	بني درور	Bnei Dror	9	90	32.2618	34.9018
בני יהודה וגבעת יואב	1331	בני יהודה וגבעת יואב	Bnei Yehuda and Givat Yoav	Бней Иеуда и Гиват Йоав	بني يهودا وجفعات يوئاف	Bnei Yehuda y Givat Yoav	10	15	32.7983	35.6911
בני נצרים	95	בני נצרים	Bnei Netzarim	Бней Нецарим	بني نتسريم	Bnei Netzarim	13	30	31.1435	34.3164
בני עטרות	712	בני עטרות	Bnei Atarot	Бней Атכрот	بني عطاروت	Bnei Atarot	20	90	32.0215	34.9101
בני עי''ש	456	בני עיש	Bnei Ayish	Бней Аиш	بني عايش	Bnei Ayish	7	60	31.7902	34.7593
בני ציון	867	בני ציון	Bnei Zion	Бней Цион	بني تسيون	Bnei Zion	9	90	32.2198	34.8684
בני ראם	438	בני ראם	Bnei Re'em	Бней Рам	بني رام	Bnei Re'em	7	60	31.77	34.7905
בניה	543	בניה	Bnaya	Бнайя	بنيه	Bnaya	7	60	31.8434	34.7518
בנימינה	1053	בנימינה	Binyamina	Биньямина	بنيامينا	Binyamina	5	90	32.5171	34.9551
בסמת טבעון	1244	בסמת טבעון	Basmat Tab'un	Басмат Тивон	بسمة طبعون	Basmat Tab'un	34	60	32.7363	35.1532
בענה	1434	בענה	Bi'ina	Биина	البعنة	Bi'ina	1	30	32.9295	35.2719
בצרה	863	בצרה	Batzra	Бацра	بصرة	Batzra	9	90	32.2145	34.8781
בצת	1581	בצת	Betzet	Бецет	بتست	Betzet	6	0	33.07	35.1326
בקוע	536	בקוע	Beko'a	Бкоа	بكوع	Beko'a	3	90	31.8279	34.9247
בקעות	887	בקעות	Beka'ot	Бкаот	بكعوت	Beka'ot	29	90	32.2421	35.4526
בר גיורא	400	בר גיורא	Bar Giora	Бар Гиора	بار جيورا	Bar Giora	3	90	31.7297	35.0734
בר יוחאי	1526	בר יוחאי	Bar Yochai	Бар Йохай	بار يوحاي	Bar Yojai	1	30	32.9977	35.4482
ברוכין	782	ברוכין	Brukhin	Брухин	بروخين	Brujin	11	90	32.0822	35.0941
ברור חיל	267	ברור חיל	Bror Hayil	Брор Хайль	برور حيال	Bror Hayil	17	30	31.557	34.6465
ברוש	189	ברוש	Brosh	Брош	باروش	Brosh	17	30	31.371091	34.634933
ברטעה	1017	ברטעה	Bart'a	Барта	برطعه	Bart'a	15	90	32.4721	35.095
ברכיה	344	ברכיה	Berekhya	Брехия	براخيا	Berekhya	21	30	31.668	34.6243
ברעם	1575	ברעם	Baram	Барам	برعام	Baram	6	0	33.059	35.4332
ברקאי	1022	ברקאי	Barkai	Баркай	بركاي	Barkai	5	90	32.4761	35.031
ברקן	788	ברקן	Barkan	Баркан	بركان	Barkan	11	90	32.1095	35.106
ברקת	713	ברקת	Bareket	Барекет	بركات	Bareket	20	90	32.0183	34.9432
בת הדר	317	בת הדר	Bat Hadar	Бат Хадар	بات هدار	Bat Hadar	21	30	31.6481	34.5971
בת חן	949	בת חן	Bat Chen	Бат Хен	بات حين	Bat Jen	9	90	32.3602	34.8724
בת חפר	932	בת חפר	Bat Hefer	Бат Хефер	بات حيفر	Bat Jefer	9	90	32.3337	35.0137
בת עין	340	בת עין	Bat Ayin	Бат Аин	بات عاين	Bat Ayin	14	90	31.6577	35.1011
בת שלמה	1110	בת שלמה	Bat Shlomo	Бат Шломо	بات شلومو	Bat Shlomo	22	60	32.6003	35.0038
בת-ים	1866	בת-ים	Bat Yam	Бат-Ям	بات يام	Bat Yam	18	90	32.0132	34.748
בתי מלון ים המלח	108	בתי מלון ים המלח	Dead Sea Hotels	Гостиницы Мертвого Моря	فنادق البحر الميت	Hoteles del Mar Muerto	12	90	31.1691	35.3673
ג'דידה מכר	1424	גדידה מכר	Jadeidi-Makr	Дждейда Макр	جديدة المكر	Jadeidi-Makr	1	30	32.9287	35.1506
ג'וליס	1448	גוליס	Julis	Джулис	جولس	Julis	1	30	32.945	35.1842
ג'לג'וליה	828	גלגוליה	Jaljulia	Джальджулия	جلجوليه	Jaljulia	9	90	32.1525	34.954
ג'סר א-זרקא	1063	גסר א-זרקא	Jisr az-Zarqa	Джиср аз-Зарка	جسر الزرقاء	Jisr az-Zarqa	5	90	32.5363	34.9116
ג'ש - גוש חלב	1541	גש - גוש חלב	Jish (Gush Halav)	Джиш (Гуш Халав)	الجش	Jish (Gush jalav)	6	0	33.0213	35.4479
ג'ת	977	גת	Jatt	Джатт	جت	Jatt	15	90	32.3984	35.0361
גאולי תימן	973	גאולי תימן	Geulei Teiman	Геулей Тейман	جئولي تيمان	Geulei Teiman	9	90	32.3918	34.901
גאולים	915	גאולים	Geulim	Геулим	جئوليم	Geulim	9	90	32.2965	34.9439
גאליה	571	גאליה	Ge'alya	Геалия	جالية	Ge'alya	23	60	31.8856	34.7654
גבולות	118	גבולות	Gvulot	Гвулот	جفولوت	Gvulot	17	30	31.2112	34.4662
גבים, מכללת ספיר	1759	גבים, מכללת ספיר	Gavim, Sapir College	Габим, колледж Сапир	جافين, كلية سفير	Gavim, Sapir College	13	15	31.5071	34.5974
קבוצת גבע	1097	קבוצת גבע	Kvutzat Geva	Квуцат Гева	فرقة جيبع	Kvutzat Geva	34	60	32.5661	35.3728
גבע בנימין	565	גבע בנימין	Geva Binyamin	Гева Биньямин	جيفع بنيامين	Geva Binyamin	11	90	31.85	35.2739
גבע כרמל	1149	גבע כרמל	Geva Carmel	Гева Кармель	جيبع كرميل	Geva Carmel	22	60	32.6622	34.9541
גבעות	360	גבעות	Gvaot	Гваот	جفاعوت	Gvaot	14	90	31.6789	35.1019
גבעות בר	181	גבעות בר	Giv'ot Bar	Гивот Бар	جفاعوت بار	Giv'ot Bar	24	45	31.3572	34.7555
גבעות גורל	1919	גבעות גורל	Goral Hills	Холмы Гораль	جفعوت جورال	Goral Hills	24	45	31.4098	34.7905
גבעות עדן	350	גבעות עדן	Giv'ot Eden	Гивот Эден	جفاعوت عيدن	Giv'ot Eden	3	90	31.6622	35.0139
גבעת אבני	1297	גבעת אבני	Giv'at Avni	Гиват Авни	جفعات أفني	Giv'at Avni	4	60	32.7754	35.4362
גבעת אלה	1232	גבעת אלה	Givat Ela	Гиват Эла	جفعات إيلا	Givat Ela	34	60	32.722	35.2448
גבעת אסף	1891	גבעת אסף	Giv'at Asaf	Гив'ат Асаф	جفعات أساف	Giv'at Asaf	11	90	31.9112	35.2481
גבעת ברנר	567	גבעת ברנר	Givat Brenner	Гиват Бренер	جفعات برنر	Givat Brenner	7	90	31.8666	34.8023
גבעת הראל וגבעת הרואה	1890	גבעת הראל וגבעת הרואה	Giv'at Har'el and Giv'at HaRoeh	Гив'ат Харель и Гив'ат Ха Ро	جفعات هرأل وجفعات هروئي	Giv'at Har'el and Giv'at HaRoeh	11	90	32.0563	35.2748
גבעת השלושה	787	גבעת השלושה	Givat HaShlosha	Гиват ха-Шлоша	جفعات هشلوشا	Givat HaShlosha	18	90	32.0963	34.9206
גבעת וולפסון	1228	גבעת וולפסון	Givat Wolfson	Гиват Вольфсон	جفعات فولفسون	Givat Wolfson	22	60	32.7202	35.0161
גבעת וושינגטון	519	גבעת וושינגטון	Givat Washington	Гиват Вашингтон	جفعات واشنطون	Givat Washington	7	60	31.8175	34.7289
גבעת זאב	570	גבעת זאב	Givat Ze'ev	Гиват Зеэв	جفعات زئيف	Givat Ze'ev	32	90	31.8612	35.1673
גבעת חביבה	1006	גבעת חביבה	Givat Haviva	Гиват Хавива	جفعات حبيياه	Givat Javiva	5	90	32.457652	35.02009
גבעת חיים איחוד	975	גבעת חיים איחוד	Givat Haim (Ihud)	Гиват Хаим Эхуд	جيفعات حاييم إيحود	Givat Haim (Ijud)	9	90	32.3967	34.933
גבעת חיים מאוחד	968	גבעת חיים מאוחד	Givat Haim (Meuhad)	Гиват Хаим Меухад	جفعات حاييم مؤوحاد	Givat Haim (Meuhad)	9	90	32.3921	34.9294
גבעת חן	837	גבעת חן	Givat Hen	Гиват Хен	جفعات حين	Givat jen	9	90	32.1676	34.8755
גבעת יערים	474	גבעת יערים	Givat Yearim	Гиват Яарим	جفعات يعاريم	Givat Yearim	3	90	31.7861	35.0928
גבעת ישעיהו	349	גבעת ישעיהו	Givat Ishayahu	Гиват Йешаягу	جفعات يشعياهو	Givat Ishayahu	3	60	31.6717	34.9437
גבעת כ''ח	719	גבעת כח	Giv'at Ko'ah	Гиват Коах	جفعات كواح	Giv'at Ko'j	20	90	32.032091	34.938796
גבעת ניל''י	1074	גבעת נילי	Givat Nili	Гиват Нили	جفعات نيلي	Givat Nili	15	90	32.549043	35.041194
גבעת עדה	1056	גבעת עדה	Givat Ada	Гиват Ада	جفعات عيدا	Givat Ada	5	90	32.521	35.0114
גבעת עוז	1084	גבעת עוז	Givat Oz	Гиват Оз	جفعات عوز	Givat Oz	15	90	32.5559	35.198
גבעת שמואל	755	גבעת שמואל	Givat Shmuel	Гиват Шмуэль	جفعات شموئيل	Givat Shmuel	18	90	32.0773	34.8492
גבעת שפירא	951	גבעת שפירא	Givat Shapira	Гиват Шапира	جفعات شفيرا	Givat Shapira	9	90	32.3576	34.8758
גבעתי	395	גבעתי	Givati	Гивати	جفعاتي	Givati	7	45	31.7331	34.6795
גבעתיים	744	גבעתיים	Givatayim	Гиватаим	جفعتايم	Givatayim	18	90	32.0722	34.8089
גברעם	282	גברעם	Gvaram	Гварам	جفرعام	Gvaram	13	15	31.5915	34.6122
גבת	1164	גבת	Gvat	Гват	جفت	Gvat	34	60	32.6766	35.2132
גדות	1543	גדות	Gadot	Гадот	جادوت	Gadot	1	30	33.0182	35.6195
גדעונה	1085	גדעונה	Gidona	Гидона	جدعونه	Gidona	34	60	32.5499	35.3592
גדרה	484	גדרה	Gdera	Гадера	جديره	Gdera	7	60	31.8123	34.777
גונן	1618	גונן	Gonen	Гонен	جونن	Gonen	6	15	33.124	35.6462
גורן	1565	גורן	Goren	Горен	جورن	Goren	6	0	33.0556	35.2336
גורנות הגליל	1572	גורנות הגליל	Gornot HaGalil	Горнот ха-Галиль	جورنوت هجاليل	Gornot HaGalil	6	0	33.0593	35.2497
גזית	1148	גזית	Gazit	Газит	جزيت	Gazit	34	60	32.6393	35.4462
גזר	579	גזר	Gezer	Гезер	جيزر	Gezer	23	90	31.8761	34.9203
גיאה	306	גיאה	Ge'a	Гея	جيئاه	Ge'a	21	30	31.6285	34.6027
גיבתון	1779	גיבתון	Gibton	Гибтон	جيفتون	Gibton	23	90	31.8883	34.7991
גיזו	505	גיזו	Gizo	Гизо	جيزو	Gizo	3	90	31.8056	34.9397
גילת	164	גילת	Gilat	Гилат	جيلات	Gilat	17	45	31.3263	34.6489
גינוסר	1372	גינוסר	Ginosar	Гиносар	جينوسار	Ginosar	4	60	32.8487	35.5232
גינתון	1842	גינתון	Ginaton	Гинатон	جينتون	Ginaton	23	90	31.9628	34.9131
גיתה	1483	גיתה	Gita	Гита	جيته	Gita	1	30	32.9672	35.2491
גיתית	798	גיתית	Gitit	Гитит	جيتيت	Gitit	29	90	32.1003	35.3954
גלאון	315	גלאון	Galon	Галон	جيلون	Galon	3	45	31.6334	34.8489
גלגל	707	גלגל	Gilgal	Гильгаль	جلجل	Gilgal	29	90	32.0004	35.4448
גלעד	1083	גלעד	Gal'ed	Гал'ед	جلعد	Gal'ed	15	90	32.5575	35.0763
גמזו	1812	גמזו	Gimzo	Гимзо	جمزو	Gimzo	20	90	31.9272	34.9411
גן הדרום	480	גן הדרום	Gan HaDarom	Ган ха-Даром	جان هدروم	Gan HaDarom	7	60	31.8041	34.6999
גן השומרון	1004	גן השומרון	Gan HaShomron	Ган ха-Шомрон	جان هشومرون	Gan HaShomron	5	90	32.465	34.999
גן חיים	856	גן חיים	Gan Haim	Ган Хаим	جان حايم	Gan Jaim	9	90	32.1958	34.907
גן יאשיה	937	גן יאשיה	Gan Yoshia	Ган Йошиа	جان ياشيه	Gan Yoshia	9	90	32.3495	34.9962
גן יבנה	447	גן יבנה	Gan Yavne	Ган Явне	جان يفنه	Gan Yavne	7	45	31.7831	34.7031
גן נר	1069	גן נר	Gan Ner	Ган Нер	جان نير	Gan Ner	34	60	32.5287	35.3363
גן שורק	1826	גן שורק	Gan Sorek	Ган Шорек	جان شورك	Gan Sorek	23	90	31.944	34.7583
גן שלמה	572	גן שלמה	Gan Shlomo	Ган Шломо	جان شلومو	Gan Shlomo	23	90	31.8788	34.7989
גן שמואל	992	גן שמואל	Gan Shmuel	Ган Шмуэль	جان شموئيل	Gan Shmuel	5	90	32.4529	34.9493
גנות	710	גנות	Ganot	Ганот	جانوت	Ganot	23	90	32.0182	34.8259
גנות הדר	926	גנות הדר	Ginot Hadar	Гинот Хадар	جانوت هدر	Ginot Hadar	9	90	32.3217	34.9007
גני הדר	589	גני הדר	Ganei Hadar	Ганей Хадар	جاني هدار	Ganei Hadar	23	90	31.8782	34.8576
גני טל	457	גני טל	Ganei Tal	Ганей Таль	جاني طال	Ganei Tal	7	60	31.7886	34.7914
גני יוחנן	559	גני יוחנן	Ganei Yochanan	Ганей Йоханан	جاني يوحانان	Ganei Yojanan	23	90	31.8599	34.8408
גני עם	825	גני עם	Ganei Am	Ганей Ам	جاني عام	Ganei Am	9	90	32.1498	34.9034
גני תקווה	746	גני תקווה	Ganei Tikva	Ганей Тиква	جاني تكفا	Ganei Tikva	18	90	32.0605	34.8731
גניגר	1159	גניגר	Genigar	Генигар	جينجار	Genigar	34	60	32.6634	35.2599
געש	872	געש	Ga'ash	Гааш	جاعاش	Ga'ash	9	90	32.2285	34.8244
געתון	1522	געתון	Ga'aton	Гаатон	جعتون	Ga'aton	6	15	33.0061	35.2138
גפן	411	גפן	Geffen	Гефен	جفن	Geffen	3	60	31.7404	34.8784
גרופית	22	גרופית	Grofit	Грофит	جروفيت	Grofit	27	90	29.9416	35.0647
גשור	1349	גשור	Gshur	Гшур	جاشور	Gshur	10	15	32.8199	35.7157
גשר	1135	גשר	Gesher	Гешер	جيشير	Gesher	25	60	32.6212	35.5504
גשר הזיו	1545	גשר הזיו	Gesher HaZiv	Гешер ха-Зив	جيشير هزيف	Gesher HaZiv	6	0	33.0405	35.1106
גת	314	גת	Gat	Гат	جت	Gat	7	45	31.6278	34.7941
גת רימון	758	גת רימון	Gat Rimon	Гат Римон	جت ريمون	Gat Rimon	18	90	32.0681	34.8814
דבוריה	1179	דבוריה	Daburiyya	Дабурия	دبوريه	Daburiyya	34	60	32.6941	35.3685
דביר	210	דביר	Dvir	Двир	دبير	Dvir	24	45	31.4117	34.8252
דברת	1154	דברת	Dovrat	Доврат	دوبرات	Dovrat	34	60	32.6467	35.3501
דגניה א	1224	דגניה א	Degania Alef	Дгания Алеф	دجانيا أ‘	Degania Alef	4	60	32.7069	35.5751
דגניה ב	1211	דגניה ב	Degania Bet	Дгания Бет	دجانيا ب‘	Degania Bet	4	60	32.6991	35.5776
דוב''ב	1574	דובב	Dovev	Довев	دوفيف	Dovev	6	0	33.0508	35.407747
דולב	1815	דולב	Dolev	Долев	دوليف	Dolev	11	90	31.9262	35.1336
דור	1109	דור	Dor	Дор	دور	Dor	22	60	32.607548	34.923294
דורות	249	דורות	Dorot	Дорот	دوروت	Dorot	17	30	31.5072	34.6457
דחי	1134	דחי	Ed-Dahi	Дахи	الدحي	Ed-Daji	34	60	32.6225	35.3436
דימונה	88	דימונה	Dimona	Димона	ديمونا	Dimona	2	90	31.0694	35.0334
דיר אל-אסד	1442	דיר אל-אסד	Deir al-Asad	Дир Эль-Асад	دير الأسد	Deir al-Asad	1	30	32.9344	35.2684
דיר חנא	1381	דיר חנא	Deir Hanna	Дир Хана	دير حنا	Deir Janna	16	60	32.8623	35.3653
דישון	1599	דישון	Dishon	Дишон	ديشون	Dishon	6	0	33.0823	35.5176
דליה	1102	דליה	Dalia	Далья	داليه	Dalia	15	90	32.5892	35.077
דלית אל כרמל	1172	דלית אל כרמל	Daliyat al-Karmel	Далият эль Кармель	دالية الكرمل	Daliyat al-Karmel	22	60	32.6938	35.0554
דלתון	1542	דלתון	Dalton	Дальтон	دلتون	Dalton	6	0	33.0166	35.4899
דמיידה	1340	דמיידה	Dmeide	Дмейде	ضميده	Dmeide	16	60	32.815	35.2266
קיבוץ דן	1659	קיבוץ דן	Kibutz Dan	Кибуц Дан	كيبوتس دان	Kibutz Dan	6	0	33.2406	35.6523
דניאל	1930	דניאל	Daniel	Даниэль	دانيال	Daniel	17	45	31.3109	34.5931
דפנה	1653	דפנה	Dafna	Дафна	دفنا	Dafna	6	0	33.2308	35.6383
דקל	110	דקל	Dekel	Декель	ديكل	Dekel	13	15	31.196642	34.34709
האון	1251	האון	Ha'On	Хаон	هاون	Ha'On	10	30	32.7267	35.6227
הבונים	1128	הבונים	HaBonim	ха-Боним	هبونيم	HaBonim	22	60	32.6366	34.9327
הגושרים	1649	הגושרים	HaGoshrim	ха-Гошрим	هجوشريم	HaGoshrim	6	0	33.2215	35.623
הדר עם	941	הדר עם	Hadar Am	Хадар Ам	هدار عام	Hadar Am	9	90	32.3497	34.8989
הוד השרון	810	הוד השרון	Hod HaSharon	Ход ха-Шарон	هود هشارون	Hod HaSharon	9	90	32.15	34.8839
הודיה	345	הודיה	Hodaya	Ходайя	هوديا	Hodaya	21	30	31.6764	34.6393
הודיות	1322	הודיות	Hodayot	Ходайот	هوديوت	Hodayot	4	60	32.7886	35.435
הושעיה	1277	הושעיה	Hoshaya	Хошайя	هوشيعا	Hoshaya	34	60	32.7579	35.2952
הזורעים	1268	הזורעים	HaZor'im	ха-Зорим	هزورعيم	HaZor'im	4	60	32.7481	35.4999
החותרים	1258	החותרים	HaHotrim	ха-Хотрим	هحوتريم	HaJotrim	19	60	32.7523	34.9575
היוגב	1117	היוגב	HaYogev	ха-Йогев	هيوجف	HaYogev	34	60	32.6128	35.2075
הילה	1556	הילה	Hila	Хила	هيلا	Hila	6	0	33.0362	35.2446
המכללה האקדמית כנרת	1225	המכללה האקדמית כנרת	Kinneret Academic College	Академический колледж Кине	الكلية الأكاديمية كنيرت	Colegio Academico Kinneret	4	30	32.7054	35.5918
המעפיל	962	המעפיל	HaMa'apil	ха-Маапиль	همفعيل	HaMa'apil	9	90	32.378	34.9831
המרכז האקדמי רופין	935	המרכז האקדמי רופין	Ruppin Academic Center	Академический центр Рупин	المركز الأكاديمي روبين	Centro Academico Ruppin	9	90	32.3424	34.9123
הסוללים	1263	הסוללים	HaSollelim	ха-Солелим	هسوليليم	HaSollelim	34	60	32.7518	35.238
העוגן	954	העוגן	HaOgen	ха-Оген	هعوغن	HaOgen	9	90	32.3604	34.9233
הר אדר	538	הר אדר	Har Adar	Хар Адар	هار آدار	Har Adar	3	90	31.8245	35.1297
הר ברכה	861	הר ברכה	Har Bracha	Хар Браха	هار براخا	Har Braja	11	90	32.1933	35.2649
הר גילה	402	הר גילה	Har Gilo	Хар Гило	هار جيلو	Har Gilo	14	90	31.7221	35.1715
הר הנגב	1924	הר הנגב	Har HaNegev	Гора Негев	جبل النقب	Har HaNegev	2	90	30.6817	34.785
הר עמשא	182	הר עמשא	Har Amsha	Хар Амша	هار عمشا	Har Amsha	14	90	31.3427	35.1016
הר-חלוץ	1463	הר-חלוץ	Har Chalutz	Хар-Халуц	هار- حلوتس	Har Jalutz	1	30	32.9506	35.3123
הראל	506	הראל	Harel	Харэль	هرئيل	Harel	3	90	31.80944	34.94903
הרדוף	1275	הרדוף	Harduf	Хардуф	هاردوف	Harduf	34	60	32.7637	35.1747
הרצליה - מערב	834	הרצליה - מערב	Herzliya - West	Герцелия Запад	هرتسليا - غرب	Herzliya - West	18	90	32.1738	34.8104
הרצליה - מרכז וגליל ים	824	הרצליה - מרכז וגליל ים	Herzeliya - Center and Glil Yam	Герцлия - центр и Галиль Ям	هرتسليا - المركز وجليل يام	Herzeliya - Centro y Glil Yam	18	90	32.1678	34.8413
הררית יחד	1370	הררית יחד	Hararit Yachad	Харарит Яхад	هرريت-ياحد	Hararit Yajad	16	60	32.8457	35.3693
ואדי אל חמאם	1357	ואדי אל חמאם	Wadi Hamam	Вади Эль Хамам	وادي الحمام	Wadi Jamam	4	60	32.8284	35.4917
ואדי אל נעם דרום	91	ואדי אל נעם דרום	Wadi el Na'am South	Вади Ель Наам - юг	وادي النعم جنوب	Wadi al-Na'am	2	90	31.1413	34.8265
ורד יריחו	550	ורד יריחו	Vered Yericho	Веред Йерихо	فيرد يريحو	Vered Yerijo	12	90	31.8262	35.4321
ורדון	348	ורדון	Vardon	Вардон	فردون	Vardon	7	45	31.6638	34.7818
זבדיאל	336	זבדיאל	Zavdiel	Завдиэль	زبدئيل	Zavdiel	7	45	31.6592	34.7603
זוהר	287	זוהר	Zohar	Зоар	زوهر	Zohar	7	30	31.5956	34.6924
זיקים	290	זיקים	Zikim	Зиким	زيكيم	Zikim	13	15	31.6072	34.521
זיתן	1850	זיתן	Zeitan	Зейтан	زيتان	Zeitan	23	90	31.9752	34.8917
זכרון יעקב	1081	זכרון יעקב	Zichron Yacov	Зихрон Яаков	زخرون يعقوب	Zijron Yacov	5	90	32.5739	34.952
זכריה	380	זכריה	Zekharia	Зхария	زكريا	Zejaria	3	60	31.7088	34.9447
זמר	956	זמר	Zemer	Земер	زيمر	Zemer	9	90	32.3657	35.0347
זמרת, שובה	220	זמרת, שובה	Zimrat, Shuva	Зимрат, Шува	زمرات ،شوبا	Zimrat, Shuva	13	15	31.4518	34.5467
זנוח	413	זנוח	Zanoah	Заноах	زنوح	Zanoaj	3	90	31.7338	34.9994
זרועה	232	זרועה	Zru'a	Зруа	زروعه	Zru'a	17	30	31.4591	34.6242
זרזיר	1205	זרזיר	Zarzir	Зарзир	زرازير	Zarzir	34	60	32.7233	35.2204
זרחיה	353	זרחיה	Zrahia	Зрахия	زرحيه	Zrajia	7	45	31.6817	34.7464
זרעית	1603	זרעית	Zarit	Зарит	زرعيت	Zarit	6	0	33.099	35.2885
ח'וואלד	1274	חוואלד	Khawaled	Хавалед	خوالد	Jawaled	34	60	32.7589	35.1584
חבצלת השרון וצוקי ים	947	חבצלת השרון וצוקי ים	Havatzelet HaSharon and Tzukei Yam	Хавацелет а-Шарон и Цукей Я	هفاتسيليت هشارون	Javatzelet HaSharon y Tzukei Yam	9	90	32.3601	34.8585
חברון	1736	חברון	Hebron	Хеврон	الخليل	Jebron	14	90	31.5249	35.108
חג'אג'רה	1246	חגאגרה	Hajajre	Хаджаджаре	حجاجرة	Jagagre	34	60	32.741	35.2049
חגור	815	חגור	Hagor	Хагор	حاجور	Jagor	9	90	32.1386	34.9476
חגלה	967	חגלה	Hogla	Хогла	حاجالاه	Jogla	9	90	32.3891	34.9243
חד נס	1446	חד נס	Had Ness	Хад Нес	حاد نيس	Jad Ness	10	15	32.9275	35.6414
חדיד	1851	חדיד	Hadid	Хадид	حديد	Jadid	20	90	31.9694	34.9322
חדרה - מזרח	983	חדרה - מזרח	Hadera - East	Хадера - восток	الخضيرة - شرق	Jadera - Este	5	90	32.4258	34.9506
חדרה - מערב	984	חדרה - מערב	Hadera - West	Хадера - запад	الخضيرة - غرب	Hadera - Oeste	5	90	32.439	34.8854
חדרה - מרכז	985	חדרה - מרכז	Hadera - Center	Хадера - центр	خضيرة - مركز	Jadera - Centro	5	90	32.4352	34.9209
חדרה - נווה חיים	989	חדרה - נווה חיים	Hadera - Neveh Haim	Хадера - Неве Хаим	الخضيرة - نافيه يام	Jadera - Neveh Jaim	5	90	32.446	34.9049
חוות גלעד	1884	חוות גלעד	Havat Gil'ad	Хават Гил'ад	حفات جلعاد	Havat Gil'ad	11	90	32.2005	35.1812
חוות יאיר	1723	חוות יאיר	Havat Yair	Хават Яир	مزرعت يائير	Javat Yair	11	90	32.1453	35.1048
חוות עדן	1026	חוות עדן	Havat Eden	Хават Эден	مزرعة عيدن	Javat Eden	25	60	32.4658	35.4866
חוות ערנדל	1873	חוות ערנדל	Ardanel Ranch	Хават Арнадель	حضيرة عردال 	Ardanel vispera	27	90	30.1149	35.1515
חוות שדה בר	1713	חוות שדה בר	Havat Sdeh Bar	Хават Сде Бар	مزرعة حقل بار	Javat Sdeh Bar	14	90	31.6609	35.2447
חוות שיקמים	253	חוות שיקמים	Havat Shikmim	Хават Шикмим	مزرعة شيكميم	Javat Shikmim	17	15	31.5113	34.6339
חולדה	535	חולדה	Hulda	Хульда	حولداه	Julda	23	90	31.8321	34.8815
חולון	701	חולון	Holon	Холон	حولون	Jolon	18	90	32.0158	34.7874
חולית	128	חולית	Holit	Холит	حوليت	Jolit	13	15	31.2306	34.3273
חולתה	1578	חולתה	Hulata	Хулата	حولاتا	Julata	1	30	33.0529	35.6092
חוסן	1514	חוסן	Hossen	Хосен	حوسن	Jossen	6	15	32.9977	35.2987
חוסנייה	1418	חוסנייה	Hussniyya	Хусния	الحصينية	Jussniyya	16	60	32.9006	35.3225
חופית	964	חופית	Hofit	Хофит	حوفيت	Jofit	9	90	32.3861	34.8741
חוקוק	1403	חוקוק	Hukok	Хукок	حوكوك	Jukok	4	60	32.8786	35.4967
חורה	156	חורה	Hura	Хура	حوره	Jura	24	90	31.3004	34.9357
חורפיש	1536	חורפיש	Hurfeish	Хурфеш	حرفيش	Jurfeish	6	0	33.0167	35.3471
חורשים	816	חורשים	Horashim	Хорашим	حورشيم	Jorashim	9	90	32.1379	34.971
חזון	1419	חזון	Hazon	Хазон	حزون	Jazon	16	60	32.9066	35.3953
חי-בר יטבתה	1872	חי-בר יטבתה	Yotvata Hai Bar Nature Reserve	Хай-Бар Йотвата	حايي بار يوتفاتا	Yotvata Jai Bar Nature Reserve	27	90	29.8462	35.0294
חיבת ציון	974	חיבת ציון	Hibat Zion	Хибат Цион	حيفات تسيون	Jibat Zion	9	90	32.398	34.9119
חיננית	1035	חיננית	Hinanit	Хинанит	حينانيت	Jinanit	11	90	32.4809	35.1732
חיפה - כרמל ועיר תחתית	1302	חיפה - כרמל ועיר תחתית	Haifa - Carmel and Lower City	Хайфа - Кармел и Нижний горо	حيفا - الكرمل والبلاد التحت	Jaifa - Carmel y Ciudad Baja	19	60	32.8072	34.9877
חיפה - מערב	1292	חיפה - מערב	Haifa - West	Хайфа - запад	حيفا - غرب	Jaifa - Oeste	19	60	32.8087	34.9603
חיפה - נווה שאנן ורמות כרמל	1270	חיפה - נווה שאנן ורמות כרמל	Haifa - Ramot HaCarmel and Neveh Sha'anan	Хайфа - Неве Шаанан и Рамот	حيفا - نيفيه شعنان	Jaifa - Ramot HaCarmel y Neveh Sha'anan	19	60	32.7812	35.0015
חיפה - קריית חיים ושמואל	1878	חיפה - קריית חיים ושמואל	Haifa - Kiryat Haim & Kiryat Shmuel	Хайфа - Кирьят Хаим , Кирьят	حيفا - كريات حايم وشموأل	Haifa - Kiryat Haim & Kiryat Shmuel	19	60	32.8283	35.0656
חיפה-מפרץ	1336	חיפה - מפרץ	Haifa Bay	Хайфский залив	حيفا - الخليج	Haifa Bahía	19	60	32.8049	35.0515
חירן	1920	חירן	Hiran	Хиран	حيران	Hiran	2	90	31.3096	34.9845
חלמיש	705	חלמיש	Halamish	Халамиш	حلميش	Jalamish	11	90	32.0083	35.1289
חלץ	276	חלץ	Heletz	Хелец	حيلتس	Jeletz	21	30	31.5779	34.6584
חמד	711	חמד	Hemed	Хемед	حيمد	Jemed	23	90	32.018	34.8413
חמדיה	1071	חמדיה	Hamadia	Хамадия	حمدية	Jamadia	25	60	32.5198	35.5206
חמדת	897	חמדת	Hemdat	Хемдат	حمدات	Jemdat	29	90	32.252	35.5268
חמרה	865	חמרה	Hamra	Хамра	حمرا	Hamra	29	90	32.1997	35.4374
חמת גדר	1198	חמת גדר	Hamat gader	Хамад Гадер	حامات جادير	Jamat gader	10	15	32.6834	35.6647
חניאל	930	חניאל	Haniel	Ханиэль	حنيئل	Janiel	9	90	32.3328	34.9477
חניתה	1591	חניתה	Hanita	Ханита	حنيتا	Janita	6	0	33.0876	35.1734
חנתון	1308	חנתון	Hanaton	Ханатон	حانتون	Janaton	16	60	32.7831	35.2451
חספין	1374	חספין	Haspin	Хаспин	حاسفين	Jaspin	10	0	32.8456	35.793
חפץ חיים	458	חפץ חיים	Hafetz Haim	Хефец Хаим	حفيتس حاييم	Jafetz Jaim	7	60	31.7893	34.7997
חצב	437	חצב	Hatzav	Хацав	حيتسف	Jatzav	7	60	31.7801	34.7706
חצבה	46	חצבה	Hatzeva	Хацева	حتسفه	Jatzeva	27	90	30.7679	35.2785
חצור	435	חצור	Hatzor	Хацор	حتسور	Jatzor	7	45	31.773	34.7199
חצור הגלילית	1506	חצור הגלילית	Hatzor HaGlilit	Хацор ха-Глилит	حتسور هجليليت	Jatzor HaGlilit	1	30	32.9804	35.5435
חצרים	139	חצרים	Hatzerim	Хацерим	حتسريم	Jatzerim	24	60	31.2406	34.7174
חרב לאת	979	חרב לאת	Herev Le'Et	Херев Леат	حيرف لأت	Herev Le'Et	9	90	32.4035	34.9171
חרוצים	873	חרוצים	Harutzim	Харуцим	حروتسيم	Jarutzim	9	90	32.2277	34.8648
חרות	876	חרות	Herut	Херут	حروت	Jerut	9	90	32.241	34.9141
חריש	1008	חריש	Harish	Хариш	حريش	Jarish	15	90	32.4619	35.0456
חרמש	987	חרמש	Hermesh	Хермеш	حرميش	Jermesh	11	90	32.4237	35.119
חרשה	1833	חרשה	Horasha	Хораша	حرشا	Jorasha	11	90	31.9444	35.148
חרשים	1473	חרשים	Harashim	Харашим	حوراشيم	Jarashim	1	30	32.9577	35.3282
חשמונאים	1813	חשמונאים	Hashmonaim	Хашмонаим	حشمونئيم	Jashmonaim	20	90	31.9326	35.0233
טבריה	1298	טבריה	Tiberias	Тверия	طبريا	Tiberiades	4	60	32.7959	35.531
טובא זנגריה	1487	טובא זנגריה	Tuba-Zangariyye	Туба Зангария	طوبا الزنغرية	Tuba-Zangariyye	1	30	32.9662	35.592
טורעאן	1296	טורעאן	Turan	Туран	طرعان	Turan	16	60	32.7751	35.3783
טייבה	886	טייבה	Tayibe	Тайбе	الطيبه	Tayibe	9	90	32.2669	35.0097
טייבה בגלבוע	1122	טייבה בגלבוע	Taibe (Gilboa)	Тайбе (Гильбоа)	الطيبه (جلبوع)	Taibe (Gilboa)	25	60	32.6047	35.4446
טירה	869	טירה	Tira	Тира	الطيرة	Tira	9	90	32.234394	34.951488
טירת יהודה	703	טירת יהודה	Tirat Yehuda	Тират Иеуда	طيرات يهودا	Tirat Yehuda	20	90	32.0148	34.9359
טירת כרמל	1259	טירת כרמל	Tirat Carmel	Тират Кармель	طيرات كرمل	Tirat Carmel	19	60	32.7621	34.973
טירת צבי	991	טירת צבי	Tirat Zvi	Тират Цви	طيرات تسفي	Tirat Zvi	25	60	32.4225	35.5283
טל מנשה	1034	טל מנשה	Tal Menashe	Тель Менаше	تل مناشيه	Tal Menashe	11	90	32.4831	35.1607
טל שחר	486	טל שחר	Tal Shachar	Таль Шахар	تال شاحار	Tal Shajar	3	90	31.8044	34.9033
טל-אל	1433	טל-אל	Tal-El	Таль-Эль	تال- إيل	Tal-El	1	30	32.9273	35.1825
טללים	75	טללים	Tlalim	Тлалим	تلاليم	Tlalim	2	90	30.9915	34.7713
טלמון	1832	טלמון	Talmon	Тальмон	تلمون	Talmon	11	90	31.9395	35.1331
טמרה	1360	טמרה	Tamra	Тамра	طمره	Tamra	16	60	32.8522	35.2013
טמרה בגלבוע	1142	טמרה בגלבוע	Tamra (Gilboa)	Тамра (Гильбоа)	طمره (الجلبوع)	Tamra (Gilboa)	34	60	32.6349	35.4027
טנא עומרים	198	טנא עומרים	Teneh Omarim	Тене Омарим	تاني عومريم	Teneh Omarim	14	90	31.3761	34.9574
טפחות	1387	טפחות	Tefahot	Тфахот	تفحوت	Tefajot	16	60	32.8686	35.4222
יבול	105	יבול	Yevul	Йевуль	يبول	Yevul	13	15	31.1895	34.319
יבנאל	1210	יבנאל	Yavne'el	Явниэль	يفنال	Yavne'el	4	60	32.7088	35.5038
יבנה	566	יבנה	Yavne	Явне	يافنيه	Yavne	7	60	31.878	34.7394
יגור	1242	יגור	Yagur	Ягур	ياجور	Yagur	19	60	32.7415	35.0768
יגל	1853	יגל	Yagel	Ягель	ييجال	Yagel	23	90	31.9878	34.8803
יד בנימין	472	יד בנימין	Yad Binyamin	Яд Биньямин	يد بنيامين	Yad Binyamin	7	60	31.7967	34.8204
יד השמונה	509	יד השמונה	Yad HaShmona	Яд ха-Шмона	يد هشمونه	Yad HaShmona	3	90	31.8095	35.0896
יד חנה	928	יד חנה	Yad Hana	Яд Хана	يد حنا	Yad Jana	9	90	32.3253	35.0067
יד מרדכי	281	יד מרדכי	Yad Mordechai	Яд Мордехай	يد موردخاي	Yad Mordejai	13	15	31.587	34.5575
יד נתן	322	יד נתן	Yad Natan	Яд Натан	يد نتان	Yad Natan	7	30	31.653	34.7049
יד רמב''ם	1784	יד רמבם	Yad Rambam	Яд Рамбам	يد رمبام	Yad Rambam	23	90	31.899841	34.900086
יהוד-מונוסון	717	יהוד-מונוסון	Yehud-Monosson	Йехуд-Моноссон	يهود- مونوسون	Yehud-Monosson	18	90	32.0303	34.8871
יהל	28	יהל	Yahel	Яхель	ياهل	Yahel	27	90	30.0842	35.1284
יובלים	1391	יובלים	Yuvalim	Ювалим	يوفاليم	Yuvalim	16	60	32.8782	35.2693
יודפת	1355	יודפת	Yodfat	Йодфат	يودفت	Yodfat	16	60	32.8366	35.2715
יונתן	1467	יונתן	Yonatan	Йонатан	يونتان	Yonatan	10	0	32.9397	35.7955
יושיביה	223	יושיביה	Yoshivia	Йошвия	يوشيبياه	Yoshivia	17	15	31.4447	34.6088
יזרעאל	1091	יזרעאל	Yizre'el	Изреэль	يزرعئيل	Yizre'el	34	60	32.5626	35.3194
יחיעם	1512	יחיעם	Yechiam	Йехиам	يحيعام	Yejiam	6	15	32.9961	35.2211
יטבתה	18	יטבתה	Yotvata	Йотвата	يوطفاتا	Yotvata	27	90	29.8963	35.0592
ייט''ב	1837	ייטב	Yitav	Итав	ييطاب	Yitav	29	90	31.947215	35.422375
יכיני	240	יכיני	Yakhini	Яхини	ياخيني	Yajini	13	15	31.4822	34.5986
ינוב	917	ינוב	Yanuv	Янув	ينوف	Yanuv	9	90	32.3074	34.9514
ינוח-ג'ת	1493	ינוח-גת	Yanuh-Jat	Янух-Джат	يانوح - جت	Yanuj-Jat	1	30	32.9816	35.2412
ינון	409	ינון	Yinon	Инон	ينون	Yinon	7	60	31.7418	34.7809
יסוד המעלה	1577	יסוד המעלה	Yesud Hama'ala	Есуд ха-Маале	يسود همعلاه	Yesud Hama'ala	1	30	33.0536	35.589
יסודות	522	יסודות	Yesodot	Есодот	يسودوت	Yesodot	23	90	31.8158	34.8656
יסעור	1405	יסעור	Yasur	Ясур	يسعور	Yasur	1	60	32.9011	35.1666
יעד	1390	יעד	Ya'ad	Яад	ياعد	Ya'ad	16	60	32.8812	35.2406
יעף	903	יעף	Ya'af	Яаф	ياعف	Ya'af	9	90	32.2683	34.9674
יערה	1583	יערה	Ya'ara	Яара	ياعره	Ya'ara	6	0	33.068	35.1861
יערות הכרמל	1199	יערות הכרמל	Yearot HaCarmel	Яарот ха-Кармель	غابات الكرمل	Yearot HaCarmel	22	60	32.7073	35.0107
יפיע	1176	יפיע	Yafia	Яфиа	يافة الناصرة	Yafia	34	60	32.695	35.282
יפית	766	יפית	Yafit	Яфит	يافيت	Yafit	29	90	32.0627	35.4743
יפעת	1165	יפעת	Ifat	Ифат	يفعات	Ifat	34	60	32.6759	35.224
יפתח	1617	יפתח	Iftach	Ифтах	يفتاح	Iftach	6	0	33.1283	35.552
יצהר	851	יצהר	Itzhar	Ицхар	يتسهار	Itzhar	11	90	32.1685	35.2359
יציץ	568	יציץ	Yatzitz	Яциц	يتسيس	Yatzitz	23	90	31.8632	34.8619
יקום	878	יקום	Yakum	Якум	يكوم	Yakum	9	90	32.2492	34.8419
יקיר	831	יקיר	Yakir	Якир	يكير	Yakir	11	90	32.1498	35.1146
יקנעם המושבה והזורע	1138	יקנעם המושבה והזורע	Yokneam Moshava and HaZoreah	Йокнеам ха-Мошава и ха-Зоре	يوكنعام هموشافه وهزورع	Yokneam Moshava y HaZoreah	15	90	32.6559	35.1152
יקנעם עילית	1137	יקנעם עילית	Yokneam Illit	Йокнеам Илит	يوكنعام عيليت	Yokneam Illit	15	90	32.6602	35.1046
יראון	1598	יראון	Yir'on	Ирон	يرئون	Yir'on	6	0	33.0772	35.4543
ירדנה	1098	ירדנה	Yardena	Ярдена	ياردينا	Yardena	25	60	32.5654	35.566
ירוחם	73	ירוחם	Yeruham	Йерухам	يروحام	Yerujam	2	90	30.9878	34.9297
ירושלים - אזור תעשייה עטרות	564	ירושלים - אזור תעשייה עטרות	Jerusalem - Atarot Industrial Zone	Иерусалим - Промзона Атарот	القدس - المنطقة الصناعية عط	Jerusalem - Atarot Area Industrial	32	90	31.8606	35.2167
ירושלים - דרום	415	ירושלים - דרום	Jerusalem - South	Иерусалим - юг	أورشليم القدس - جنوب	Jerusalem - Sur	32	90	31.7377	35.1847
ירושלים - כפר עקב	1926	ירושלים - כפר עקב	Jerusalem - Qafr 'Aqab	Иерусалим - Кфар Акев	أورشليم القدس - كفر عقب	Jerusalem - Qafr 'Aqab	32	90	31.8749	35.2175
ירושלים - מזרח	496	ירושלים - מזרח	Jerusalem - East	Иерусалим - восток	أورشليم القدس - شرق	Jerusalem - este	32	90	31.7627	35.2403
ירושלים - מערב	1922	ירושלים - מערב	Jerusalem - West	Иерусалим - запад	أورشليم القدس - غرب	Jerusalem - Oeste	32	90	31.7742	35.1727
ירושלים - מרכז	391	ירושלים - מרכז	Jerusalem - Center	Иерусалим - центр	أورشليم القدس - مركز	Jerusalem - Centrar	32	90	31.7781	35.2164
ירושלים - צפון	527	ירושלים - צפון	Jerusalem - North	Иерусалим - север	أورشليم القدس - شمال	Jerusalem - norte	32	90	31.8211	35.2389
ירחיב	829	ירחיב	Yafhiv	Ярхив	يرحيب	Yarjiv	9	90	32.1515	34.968
ירכא	1462	ירכא	Yarka	Ярка	يركا	Yarka	1	30	32.9535	35.212
ירקונה	822	ירקונה	Yarkona	Яркона	يركونة	Yarkona	9	90	32.1445	34.8979
ישובי אומן	1090	ישובי אומן	Omen Settlements	Поселения Омен	بلدات أومن	Omen Settlements	34	60	32.5655	35.2384
מרכז חבר	1076	מרכז חבר	Merkaz Hever	Мерказ Хевер	مركز حيبر	Merkaz Hever	34	60	32.5483	35.2661
ישובי יעל	1077	ישובי יעל	Yael Settlements	Поселения Яэль	بلدان ياعيل	Yael Settlements	34	60	32.5521	35.3065
ישעי	427	ישעי	Yish'i	Иши	يشعي	Yish'i	3	90	31.753	34.9626
ישרש	1790	ישרש	Yashresh	Яшреш	يشرش	Yashresh	23	90	31.9157	34.8473
יתד	112	יתד	Yated	Ятед	ياتد	Yated	13	15	31.207	34.3261
כאבול	1384	כאבול	Kabul	Кабул	كابول	Kabul	16	60	32.87	35.2054
כאוכב אבו אלהיג'א	1354	כאוכב אבו אלהיגא	Kaukab Abu al-Hija	Каукаб Абу Альхижда	كوكب ابو الهيجا	Kaukab Abu al-Hija	16	60	32.8319	35.2487
כברי	1531	כברי	Cabri	Кабри	كابري	Cabri	6	0	33.021	35.147
כדורי	1209	כדורי	Kadoorie	Кадури	كادوري	Kadoori	34	60	32.7062	35.4063
כוכב השחר	1847	כוכב השחר	Kokhav HaShahar	Кохав ха-Шахар	كوخاف هشاحار	Kojav HaShajar	11	90	31.9603	35.3494
כוכב יאיר - צור יגאל	870	כוכב יאיר - צור יגאל	Kokhav Ya'ir - Tzur Yigal	Кохав Яир - Цур Игаль	كوخاف يئير	Kojav Ya'ir - Tzur Yigal	9	90	32.2209	34.9924
כוכב יעקב	598	כוכב יעקב	Kokhav Ya'akov	Кохав Яаков	كوخاف يعقوب	Kojav Ya'akov	11	90	31.8803	35.2459
כוכב מיכאל	307	כוכב מיכאל	Kokhav Michael	Кохав Михаэль	كوخاف ميخائيل	Kojav Mijael	21	30	31.6315	34.6678
כורזים ורד הגליל	1431	כורזים ורד הגליל	Korazim Vered HaGalil	Коразим Веред ха-Галиль	خورزيم، ورد هجليل	Korazim Vered HaGalil	1	30	32.9042	35.5508
כושי רמון	31	כושי רמון	Kushi Rimon	Куши Рамон	كوشي ريمون	Kushi Rimon	27	90	30.3066	35.1346
כחל	1410	כחל	Kahal	Кахаль	كاحال	Kajal	1	60	32.8905	35.5116
כינרת מושבה	1238	כינרת מושבה	Moshavat Kinneret	Кинерет ха-Мошава	طبريا موشفا	Moshavat Kinneret	4	60	32.7238	35.5652
כינרת קבוצה	1223	כינרת קבוצה	Kvutzat Kinneret	Квуцат Кинерет	طبريا مجموعة	Kvutzat Kinneret	4	60	32.7142	35.5627
כיסופים	188	כיסופים	Kissufim	Кисуфим	كيسوفيم	Kissufim	13	15	31.3745	34.399
כיסרא סמיע	1472	כיסרא סמיע	Kisra-Sumei	Кисра Смиа	كسرى سميع	Kisra-Sumei	1	30	32.9723	35.3041
כישור	1449	כישור	Kishor	Кишор	كيشور	Kishor	1	30	32.9467	35.2502
כלא דמון	1241	כלא דמון	Damon Priosn	Тюрьма Дамон	سجن الدامون	Prisión damon	22	60	32.7332	35.0234
כליל	1492	כליל	Klil	Клиль	خليل	Klil	1	30	32.9836	35.1997
כלנית	1394	כלנית	Kalanit	Каланит	كلانيت	Kalanit	16	60	32.8753	35.454
כמהין	1768	כמהין	Kmehin	Кмеин	كمهين	Kmehin	2	60	30.9103	34.4307
כמון	1427	כמון	Kamon	Камон	كمون	Kamon	1	30	32.9125	35.3555
כנות	482	כנות	Kannot	Канот	كنوت	Kannot	7	60	31.8022	34.7509
כנף	1395	כנף	Kanaf	Канаф	كناف	Kanaf	10	15	32.8704	35.6979
כסייפה	126	כסייפה והפזורה	Kuseife and the Bedouin Diaspora	Кусфия и диаспора	كسيفة وضواحيها	Kuseife y la Diáspora Beduina	2	90	31.2347	35.0681
כסלון	448	כסלון	Ksalon	Ксалон	كسلون	Ksalon	3	90	31.7743	35.0482
כעביה	1262	כעביה	Ka'abiyye	Каабия	كعبية	Ka'abiyye	34	60	32.7567	35.1865
כעביה טבאש	1261	כעביה טבאש	Ka'abiyye Tabbash	Каабия Табаш	كعبية طباش	Ka'abiyye Tabbash	34	60	32.7504	35.184
כפר אביב	531	כפר אביב	Kfar Aviv	Кфар Авив	كفار أفيف	Kfar Aviv	7	60	31.831	34.7226
כפר אדומים	540	כפר אדומים	Kfar Edomim	Кфар Адумим	كفار أدوميم	Kfar Edomim	14	90	31.8272	35.3372
כפר אוריה	473	כפר אוריה	Kfar Uriah	Кфар Урия	كفار أوريا	Kfar Uriah	3	90	31.7934	34.9448
כפר אחים	408	כפר אחים	Kfar Achim	Кфар Ахим	كفار أحيم	Kfar Ajim	7	45	31.7459	34.7559
כפר אלדד	342	כפר אלדד	Kfar Eldad	Кфар Эльдад	كفار الداد	Kfar Eldad	14	90	31.654	35.251
כפר ביאליק	1338	כפר ביאליק	Kfar Biyalik	Кфар Бялик	كفار بياليك	Kfar Biyalik	19	60	32.8214	35.0877
כפר ביל''ו	575	כפר בילו	Kfar Bilu	Кфар Билу	كفار بيلو	Kfar Bilu	23	90	31.870475	34.826734
כפר בלום	1631	כפר בלום	Kfar Blum	Кфар Блум	كفار بلوم	Kfar Blum	6	0	33.1725	35.6079
כפר בן נון	562	כפר בן נון	Kfar Bin Nun	Кфар Бин Нун	كفار بن نون	Kfar Bin Nun	23	90	31.8617	34.9472
כפר ברא	817	כפר ברא	Kafr Bara	Кфар Бара	كفر برا	Kafr Bara	9	90	32.1309	34.9701
כפר ברוך	1145	כפר ברוך	Kfar Baruch	Кфар Барух	كفار باروخ	Kfar Baruj	34	60	32.646	35.1931
כפר גדעון	1146	כפר גדעון	Kfar Gidon	Кфар Гидон	كفار جدعون	Kfar Gidon	34	60	32.6446	35.2893
כפר גלים	1269	כפר גלים	Kfar Galim	Кфар Галим	كفار جاليم	Kfar Galim	19	60	32.7662	34.9595
כפר גליקסון	1045	כפר גליקסון	Kfar Glickson	Кфар Гликсон	كفار جليكسون	Kfar Glickson	5	90	32.5058	35.0035
כפר גלעדי	1657	כפר גלעדי	Kfar Giladi	Кфар Гилади	كفار جلعادي	Kfar Giladi	6	0	33.2421	35.5741
כפר גמילה מלכישוע	1000	כפר גמילה מלכישוע	Mlkishua Rehabilitation Village	Реабилитационный поселок М	كفر جميلة ملخيشوع	Pueblko de Mlkishua Rehabilitation	25	60	32.4386	35.4128
כפר דניאל	1819	כפר דניאל	Kfar Daniel	Кфар Даниэль	كفار دانيئل	Kfar Daniel	20	90	31.9335	34.9323
כפר האורנים	1803	כפר האורנים	Kfar HaOranim	Кфар ха-Ораним	كفار هأورنيم	Kfar HaOranim	20	90	31.9199	35.0369
כפר החורש	1207	כפר החורש	Kfar HaHoresh	Кфар ха-Хореш	كفار هحورش	Kfar HaJoresh	34	60	32.7015	35.273
כפר המכבי	1305	כפר המכבי	Kfar HaMaccabi	Кфар ха-Маккаби	كفار همكابي	Kfar HaMaccabi	19	60	32.7918	35.1148
כפר הנגיד	585	כפר הנגיד	Kfar HaNagid	Кфар ха-Нагид	كفار هنجيد	Kfar HaNagid	7	60	31.8871	34.7487
כפר הנוער ימין אורד	1191	כפר הנוער ימין אורד	Yemin Orde Youth Village	Молодежный поселок Кфар Ор	كفار هنوعر يمين أورد	Aldea Juvenil Yemin Orde	22	60	32.7016	34.9898
כפר הנשיא	1509	כפר הנשיא	Kfar HaNassi	Кфар ха-Наси	كفار هنسي	Kfar HaNassi	1	30	32.9747	35.6023
כפר הס	879	כפר הס	Kfar Hess	Кфар Хес	كفار هس	Kfar Hess	9	90	32.2477	34.9351
כפר הרא''ה	966	כפר הראה	Kfar HaRoeh	Кфар ха-Роэ	كفار هروئي	Kfar HaRoeh	9	90	32.391037	34.910917
כפר הרי''ף וצומת ראם	410	כפר הריף וצומת ראם	Kfar HaRif and Re'em Junction	Кфар АРИФ и Цомет Раам	قرية الريف ومفرق رأم	Kfar HaRif y Re'em Junction	7	60	31.747	34.7909
כפר ויתקין	960	כפר ויתקין	Kfar Vitkin	Кфар Виткин	كفار فيتكين	Kfar Vitkin	9	90	32.3805	34.8753
כפר ורבורג	377	כפר ורבורג	Kfar Warburg	Кфар Варбург	كفار وربورغ	Kfar Warburg	7	45	31.7187	34.7287
כפר ורדים	1513	כפר ורדים	Kfar Vradim	Кфар Врадим	كفار فراديم	Kfar Vradim	6	15	32.9951	35.2691
כפר זוהרים	310	כפר זוהרים	Kfar Zoharim	Кфар Зохарим	كفار زوهريم	Kfar Zoharim	3	60	31.6226	34.9257
כפר זיתים	1341	כפר זיתים	Kfar Zeitim	Кфар Зеитим	كفار زيتيم	Kfar Zeitim	4	60	32.8116	35.4652
כפר חב''ד	1861	כפר חבד	Kfar Chabad	Кфар Хабад	كفار حاباد	Kfar Jabad	23	90	31.990144	34.849103
כפר חיטים	1330	כפר חיטים	Kfar Hittim	Кфар Хитим	كفار حيطيم	Kfar Jittim	4	60	32.8	35.5033
כפר חיים	942	כפר חיים	Kfar Haim	Кфар Хаим	كفر حاييم	Kfar Jaim	9	90	32.3539	34.9007
כפר חנניה	1437	כפר חנניה	Kfar Hanania	Кфар Ханания	كفر حنانيا	Kfar Janania	16	60	32.916	35.4238
כפר חסידים	1243	כפר חסידים	Kfar Hassidim	Кфар Хасидим	كفار حسيديم	Kfar Jassidim	19	60	32.7523	35.0942
כפר חרוב	1289	כפר חרוב	Kfar Haruv	Кфар Харув	كفر حروب	Kfar Jaruv	10	15	32.7624	35.6642
כפר טבאש	1260	כפר טבאש	Kafr Tabbash	Кфар Табаш	قرية طباش	Kafr Tabbash	34	60	32.7485	35.1707
כפר טרומן	1854	כפר טרומן	Kfar Truman	Кфар Труман	كفر ترومن	Kfar Truman	20	90	31.9805	34.9277
כפר ידידיה	934	כפר ידידיה	Kfar Yedidia	Кфар Ядидья	كفر يديدياه	Kfar Yedidia	9	90	32.3449	34.899
כפר יהושע	1163	כפר יהושע	Kfar Yehoshua	Кфар Иешуа	كفر يهوشع	Kfar Yehoshua	34	60	32.6816	35.152
כפר יובל	1662	כפר יובל	Kfar Yuval	Кфар Юваль	كفار يوفال	Kfar Yuval	6	0	33.2466	35.5964
כפר יונה	922	כפר יונה	Kfar Yona	Кфар Йона	كفر يونه	Kfar Yona	9	90	32.3177	34.9336
כפר יחזקאל	1092	כפר יחזקאל	Kfar Yechezkel	Кфар Ихезкиель	كفر يحزكيل	Kfar YeJezkel	34	60	32.5669	35.3609
כפר יסיף	1461	כפר יסיף	Kfar Yassif	Кфар Ясиф	كفر ياسيف	Kfar Yassif	1	30	32.952	35.16
כפר יעבץ	902	כפר יעבץ	Kfar Yavetz	Кфар Явец	كفر ياعبيس	Kfar Yavetz	9	90	32.2739	34.9655
כפר כמא	1235	כפר כמא	Kfar Kama	Кфар Кама	كفر كما	Kfar Kama	4	60	32.7211	35.4428
כפר כנא	1255	כפר כנא	Kfar Kana	Кфар Кана	كفر كنا	Kfar Kana	34	60	32.7482	35.3438
כפר מונש	936	כפר מונש	Kfar Monash	Кфар Мона	كفار موناش	Kfar Monash	9	90	32.3456	34.9164
כפר מימון ותושיה	213	כפר מימון ותושיה	Kfar Maimon and Tushia	Кфар Маймон и Тушия	كفار ميمون وتوشيا	Kfar Maimon y Tushia	13	15	31.4324	34.5384
כפר מצר	1156	כפר מצר	Kafr Misr	Кафр Мейср	كفر مصر	Kafr Misr	34	60	32.6453	35.4221
כפר מל''ל	842	כפר מלל	Kafr Misr	Кфар Малаль	كفر ملول	Kafr Misr	9	90	32.167567	34.894744
כפר מנדא	1320	כפר מנדא	Kfar Manda	Кфар Манда	كفر مندا	Kfar Manda	16	60	32.8124	35.2586
כפר מנחם	397	כפר מנחם	Kfar Menachem	Кфар Менахем	كفار مناحيم	Kfar Menajem	3	60	31.7321	34.8351
כפר מסריק	1396	כפר מסריק	Kfar Masaryk	Кфар Масарик	كفار مسريك	Kfar Masaryk	1	30	32.8912	35.0984
כפר מרדכי	533	כפר מרדכי	Kfar Mordechai	Кфар Мордехай	كفار مردخاي	Kfar Mordejai	7	60	31.8315	34.7566
כפר נהר הירדן	1287	כפר נהר הירדן	Kfar Nehar HaYarden	Кфар Нехар ха-Ярден	كفار نهر الأردن	Kfar Nehar HaYarden	4	60	32.7683	35.4356
כפר נוער בן שמן	1843	כפר נוער בן שמן	Ben Shemen Youth Village	Кфар Ноар Бен Шемен	كفر نوعر بن شيمن	Aldea Juvenil Ben Shemen	23	90	31.9597	34.9291
כפר נטר	899	כפר נטר	Kfar Netter	Кфар Неттер	كفر نيطر	Kfar Netter	9	90	32.2719	34.872
כפר סאלד	1638	כפר סאלד	Kfar Szold	Кфар Сольд	كفار سالد	Kfar Szold	6	15	33.196	35.658
כפר סבא	840	כפר סבא	Kfar Saba	Кфар Саба	كفار سابا	Kfar Saba	9	90	32.1782	34.9076
כפר סילבר	352	כפר סילבר	Kfar Silver	Кфар Сильвер	كفر سيلفير	Kfar Silver	21	30	31.673	34.6121
כפר סירקין	761	כפר סירקין	Kfar Sirkin	Кфар Сиркин	كفار سيركين	Kfar Sirkin	18	90	32.0767	34.9228
כפר עבודה	894	כפר עבודה	Kfar Avoda	Кфар Авода	كفار عفوداه	Kfar Avoda	9	90	32.2557	34.9397
כפר עזה	239	כפר עזה	Kfar Azza	Кфар Аза	غزه	Kfar Azza	13	15	31.4834	34.5323
כפר עציון	326	כפר עציון	Kfar Etzion	Кфар Эцион	كفار عتسيون	Kfar Etzion	14	90	31.6495	35.1152
כפר פינס	1031	כפר פינס	Kfar Pinnes	Кфар Пинес	كفار بينس	Kfar Pinnes	5	90	32.4827	35.0021
כפר קאסם	793	כפר קאסם	Kfar Kassem	Кфар Касем	كفر قاسم	Kfar Kassem	9	90	32.1141	34.9728
כפר קיש	1166	כפר קיש	Kfar Kish	Кфар Киш	كفار كيش	Kfar Kish	34	60	32.6661	35.449
כפר קרע	1039	כפר קרע	Kfar Kara	Кфар Кара	كفر قرع	Kfar Kara	15	90	32.5055	35.0543
כפר רופין	1019	כפר רופין	Kfar Ruppin	Кфар Рупин	كفار روبين	Kfar Ruppin	25	60	32.4576	35.5557
כפר רות	1792	כפר רות	Kfar Rut	Кфар Рут	كفار روت	Kfar Rut	20	90	31.9104	35.0353
כפר שמאי	1475	כפר שמאי	Kfar Shamai	Кфар Шамай	كفار شماي	Kfar Shamai	1	30	32.9557	35.4579
כפר שמואל	593	כפר שמואל	Kfar Shmuel	Кфар Шмуэль	كفار شموئيل	Kfar Shmuel	23	90	31.8883	34.9348
כפר שמריהו	848	כפר שמריהו	Kfar Shmaryahu	Кфар Шмариягу	كفار شمرياهو	Kfar Shmaryahu	18	90	32.1871	34.8231
כפר תבור	1181	כפר תבור	Kfar Tavor	Кфар Тавор	كفار تابور	Kfar Tavor	34	60	32.6873	35.42
כפר תפוח	807	כפר תפוח	Kfar Tapuach	Кфар Тапуах	كفار تبواح	Kfar Tapuaj	11	90	32.118	35.2498
כפר תקווה	1202	כפר תקווה	Kfar Tikva	Кфар Тиква	كفار تكفا	Kfar Tikva	34	60	32.7013	35.115
כרכום	1457	כרכום	Karkom	Карком	كركوم	Karkom	1	30	32.9283	35.6063
כרם ביבנה	518	כרם ביבנה	Kerem BeYavne	Керем БеЯвне	كرم بيبنة	Kerem BeYavne	7	60	31.817	34.7236
כרם בן זמרה	1560	כרם בן זמרה	Kerem Ben Zimra	Керем Бен Зимра	كرم بن زمره	Kerem Ben Zimra	6	0	33.0392	35.4699
כרם מהר''ל	1136	כרם מהרל	Kerem Maharal	Керем Махарал	كرم مهرال	Kerem Maharal	22	60	32.644325	34.99145
כרם שלום	127	כרם שלום	Kerem Shalom	Керем Шалом	كرم شلوم	Kerem Shalom	13	15	31.2283	34.2846
כרמי יוסף	553	כרמי יוסף	Karmei Yossef	Кармей Йосеф	كرمي يوسف	Karmei Yossef	23	90	31.848	34.9213
כרמי צור	302	כרמי צור	Karmei Tzur	Кармей Цур	كرمي تسور	Karmei Tzur	14	90	31.6095	35.1013
כרמי קטיף	261	כרמי קטיף	Karmei Katif	Кармей Катиф	كرمي كطيف	Karmei Katif	14	60	31.5378	34.912
כרמיאל	1417	כרמיאל	Karmiel	Кармиэль	كرمئيل	Karmiel	1	30	32.9147	35.2924
כרמיה	291	כרמיה	Karmia	Кармия	كرميه	Karmia	13	15	31.6027	34.5404
כרמים	176	כרמים	Kramim	Крамим	كرميم	Kramim	24	90	31.3337	34.9179
כרמית	175	כרמית	Carmit	Кармит	كرميت	Carmit	24	60	31.3322	34.8968
כרמל	217	כרמל	Carmel	Кармель	كرمل	Carmel	14	90	31.4318	35.1828
לבון	1450	לבון	Lavon	Лавон	لفون	Lavon	1	30	32.9412	35.2865
לביא	1312	לביא	Lavi	Лави	لفي	Lavi	4	60	32.7876	35.4407
לבנים	1388	לבנים	Livnim	Ливним	لبنيم	Livnim	4	60	32.8638	35.4975
להב	197	להב	Lahav	Лахав	لاهف	Lahav	24	45	31.3794	34.8713
להבות הבשן	1625	להבות הבשן	Lehavot HaBashan	Лехавот ха-Башан	لهفوت هباشان	Lehavot HaBashan	6	15	33.1412	35.6479
להבות חביבה	976	להבות חביבה	Lehavot Haviva	Лехавот Хавива	لهافوت حبيية	Lehavot Javiva	5	90	32.3952	35.0118
להבים	185	להבים	Lehavim	Лехавим	لهافيم	Lehavim	24	45	31.3738	34.817
לוד	1830	לוד	Lod	Лод	اللد	Lod	23	90	31.951	34.8881
לוזית	358	לוזית	Luzit	Лузит	لوزيت	Luzit	3	60	31.6882	34.8882
לוחמי הגטאות	1469	לוחמי הגטאות	Lochamei HaGetaot	Лохамей ха-Гетаот	لوحمي هجيتؤوت	Loחamei HaGetaot	1	30	32.9627	35.0967
לוטם וחמדון	1400	לוטם וחמדון	Lotem and Hamdon	Лотем и Хамдон	لوطم وحمدون	Lotem and Hamdon	16	60	32.8809	35.36
לוטן	24	לוטן	Lotan	Лотан	لوطن	Lotan	27	90	29.9883	35.0868
לטרון	545	לטרון	Latrun	Латрун	لطرون	Latrun	3	90	31.8369	34.9772
לימן	1563	לימן	Lehman	Лиман	ليمن	Lehman	6	0	33.0587	35.1118
לכיש	270	לכיש	Lakhish	Лахиш	لخيش	Lajish	7	45	31.5609	34.8441
לפיד	1802	לפיד	Lapid	Лапид	لبيد	Lapid	20	90	31.917	35.0318
לפידות	1471	לפידות	Lapidot	Лапидот	لفيدوت	Lapidot	1	30	32.9598	35.261
לקיה	153	לקיה והפזורה	Lakiya and the Bedouin Diaspora	Лакия и диаспора	اللقية وضواحيها	Lakiya y la Diáspora Beduina	24	60	31.3249	34.8662
מאור	986	מאור	Maor	Маор	مئور	Maor	5	90	32.4258	35.0053
מאיר שפיה	1100	מאיר שפיה	Meir Shfeya	Меир Шфея	مئير شفيه	Meir Shfeya	22	60	32.5912	34.9711
מבוא ביתר	401	מבוא ביתר	Mevo Beitar	Мево Бейтар	مافو بيتار	Mevo Beitar	3	90	31.7226	35.1067
מבוא דותן	988	מבוא דותן	Mevo Dotan	Мево Дотан	مافو دوتان	Mevo Dotan	11	90	32.4208	35.1739
מבוא חורון	554	מבוא חורון	Mevo Horon	Мево Хорон	مافو حورون	Mevo Joron	20	90	31.8496	35.035
מבוא חמה	1257	מבוא חמה	Mevo Hama	Мево Хама	مافو حاماه	Mevo Jama	10	15	32.7367	35.6552
מבוא מודיעים	1820	מבוא מודיעים	Mevo Modi'im	Мево Модиим	مافو موديعيم	Mevo Modi'im	20	90	31.9339	34.988
מבואות יריחו	1804	מבואות יריחו	Mevuot Yericho	Мевуот Йерихо	مفوؤت يريحو	Mevuot Yericho	29	90	31.9074	35.4156
מבועים	224	מבועים	Mabu'im	Мабуим	مفوعيم	Mabu'im	17	30	31.4494	34.655
מבטחים, עמיעוז, ישע	135	מבטחים, עמיעוז, ישע	Mivtahim, Ami'oz, Yesha	Мивтахим, Амиоз, Еша	مبطاحيم ، عميعوز ، يشع	Mivtajim, Amioz, Yesha	13	15	31.2426	34.4065
מבקיעים	304	מבקיעים	Mavki'im	Мавкиим	مفكيعيم	Mavki'im	21	30	31.6225	34.5774
מבשרת ציון	494	מבשרת ציון	Mevasseret Zion	Мевасерет Цион	مبريشت تسيون	Mevasseret Zion	32	90	31.8041	35.1579
מג'דל כרום	1425	מגדל כרום	Majd al-Krum	Маджд Аль Крум	مجد الكروم	Majd al-Krum	1	30	32.9201	35.2566
מג'דל שמס	1665	מגדל שמס	Majdal Shams	Маджд Аль Шамс	مجدل شمس	Majdal Shams	28	0	33.2691	35.7721
מגדים	1213	מגדים	Megadim	Мегадим	مجاديم	Megadim	22	60	32.7277	34.9609
מגדל	1358	מגדל	Migdal	Мигдаль	مجدال	Migdal	4	60	32.8395	35.4998
מגדל העמק	1158	מגדל העמק	Migdal HaEmek	Мигдаль ха-Эмек	مجدال هعيمق	Migdal HaEmek	34	60	32.6778	35.2417
מגדל עוז	328	מגדל עוז	Migdal Oz	Мигдаль Оз	مجدل عوز	Migdal Oz	14	90	31.6409	35.1431
מגדל תפן	1494	מגדל תפן	Migdal Tefen	Мигдаль Тефен	مجدال تيفن	Migdal Tefen	1	30	32.9767	35.278
מגדלים	789	מגדלים	Megadlim	Мегадлим	مجدليم	Megadlim	11	90	32.0899	35.3426
קיבוץ מגידו	1095	קיבוץ מגידו	Kibutz Megiddo	Кибуц Мегидо	كيبوتس مجيدو	Kibutz Megiddo	15	90	32.5785	35.1805
מגל	971	מגל	Magal	Магаль	مجال	Magal	15	90	32.3856	35.0361
מגן	154	מגן	Magen	Маген	ماجن	Magen	13	15	31.2987362	34.4269827
מגן שאול	1061	מגן שאול	Magen Shaul	Маген Шауль	ماجن شاؤول	Magen Shaul	34	60	32.5215	35.3064
מגרון	599	מגרון	Migron	Мигрон	ميجرون	Migron	11	90	31.874167	35.259588
מגשימים	732	מגשימים	Magshimim	Магшимим	مجشيميم	Magshimim	18	90	32.0444	34.8998
מדרך עוז	1104	מדרך עוז	Midrach Oz	Мидрах Оз	مدراخ عوز	Midraj Oz	15	90	32.5946	35.158
מדרשת בן גוריון	53	מדרשת בן גוריון	Ben Gurion College	Колледж Бен Гурион	مدرشت بن غوريون	Midreshet Ben Gurion	2	90	30.8523	34.7834
מודיעין	1785	מודיעין	Modi'in	Модиин	موديعين	Modi'in	20	90	31.8903	35.0104
מודיעין - ישפרו סנטר	594	מודיעין - ישפרו סנטר	Modi'in - Ishpro Center	Модиин - Ишпро центр	موديعين- يشفرو سنتر	Modi'in - Ishpro Centro	20	90	31.8898056	34.9649992
מודיעין - ליגד סנטר	1791	מודיעין - ליגד סנטר	Modi'in - Ligad Center	Модиин - центр Лигад	موديعين - ليجد سنتر	Modi'in - Ligad Centro	20	90	31.9211897	34.9701743
מודיעין עילית	1814	מודיעין עילית	Modi'in Illit	Модиин Илит	موديعين عيليت	Modi'in Illit	20	90	31.9325	35.0423
מולדת	1107	מולדת	Moledet	Моледет	مولدت	Moledet	25	60	32.5862	35.4389
מועאוויה	1066	מועאוויה	Mu'awiya	Муавия	معاوية	Mu'awiya	15	90	32.5319	35.1029
מרכז אזורי דרום השרון	814	מרכז אזורי דרום השרון	Southern Sharon Regional Center	Регеональный центр Дром ха	مركز أقليمي غرب الشارون	Southern Sharon Regional Center	9	90	32.1336	34.912
מרכז אזורי מבואות חרמון	1613	מרכז אזורי מבואות חרמון	Mevuot Hermon Regional Council	Мевуот Хермон Региональны	المجلس المحلي مفوؤت حرمون	Mevuot Hermon Regional Council	6	0	33.1209	35.5699
מרכז אזורי מרום גליל	1525	מרכז אזורי מרום גליל	Marom HaGalil Regional Center	Региональный центр Маром Г	مركز ميروم هجليل الإقليمي	Marom HaGalil Regional Center	1	30	32.998	35.4415
מוצא עילית	495	מוצא עילית	Motza Illit	Моца Илит	موتسا عيليت	Motza Illit	32	90	31.7936	35.157
מוקיבלה	1060	מוקיבלה	Muqeible	Мукейбле	مقيبلة	Muqeible	34	60	32.5151	35.2948
מורן	1436	מורן	Moran	Моран	موران	Moran	16	60	32.9216	35.3948
מורשת	1348	מורשת	Moreshet	Морешет	موريشت	Moreshet	16	60	32.8261	35.232
מזור	739	מזור	Mazor	Мазор	مازور	Mazor	20	90	32.0507	34.9314
מזכרת בתיה	534	מזכרת בתיה	Mazkeret Batya	Мазкерет Батья	مزكيرت باتيا	Mazkeret Batya	23	90	31.8532	34.8424
מזרע	1152	מזרע	Mizra	Мизра	مزراع	Mizra	34	60	32.6499	35.2864
מזרעה	1490	מזרעה	Mazra'a	Мазра	مزرعة	Mazra'a	1	30	32.9837	35.0989
מחולה	963	מחולה	Mehola	Мехола	محوله	Mejola	29	90	32.3653	35.516
מחניים	1517	מחניים	Machanaim	Маханаим	محانييم	Majanaim	1	30	32.9888	35.5704
מחסיה	422	מחסיה	Mahsiya	Махсия	محسيه	Majsiya	3	90	31.7489	35.0073
מטווח ניר עם	251	מטווח ניר עם	Nir Am Shooting Range	Стрельбище Нир Ам	متفاح نير عام	Rango de Disparo Nir Am	13	15	31.5128	34.5543
מטולה	1669	מטולה	Metulla	Метула	المطلة	Metulla	6	0	33.2772	35.5782
מטע	389	מטע	Mata	Мата	مطاع	Mata	3	90	31.7165	35.0606
מי עמי	1048	מי עמי	Mei Ami	Мей Ами	مي عامي	Mei Ami	15	90	32.505	35.1464
מייסר	999	מייסר	Meiser	Мейсер	ميسر	Meiser	15	90	32.4452	35.0421
מיצד	288	מיצד	Metzad	Мецад	ميتساد	Metzad	14	90	31.5862	35.1876
מיצר	1290	מיצר	Metzar	Мецар	ميتسار	Metzar	10	0	32.7686	35.7364
מירב	1009	מירב	Merav	Мерав	ميراف	Merav	25	60	32.452	35.4225
מירון	1502	מירון	Meron	Мерон	ميرون	Meron	1	30	32.9852	35.4416
מישר	503	מישר	Meishar	Мейшар	ميشر	Meishar	7	60	31.8159	34.7526
מיתר	169	מיתר	Meitar	Мейтар	ميتار	Meitar	24	90	31.327	34.9432
מכון וינגייט	888	מכון וינגייט	Wingate Institute	Институт Вингейт	معهد فينجيت	Instituto Wingate	9	90	32.263	34.837
מכורה	847	מכורה	Mekhora	Мехора	مخوراه	Mejora	29	90	32.1642	35.4236
מכמורת	978	מכמורת	Mikhmoret	Михморет	مخمورت	Mijmoret	9	90	32.4065	34.8716
מכמנים	1426	מכמנים	Mikhmanim	Михманим	مخمنيم	Mikhmanim	1	30	32.9075	35.3287
מלונות ים המלח מרכז	1874	מלונות ים המלח מרכז	Dead Sea Hotels - Center	Отели Мертого моря - Центра	فنادق البحر الميت	Hoteles del Mar Muerto - centro	12	90	31.1803	35.3645
מלכיה	1608	מלכיה	Malkia	Малкия	ملاخيا	Malkia	6	0	33.0986	35.5096
ממשית	1897	ממשית	Mamshit	Мамшит	ممشيت	Mamshit	2	90	31.0345	35.0478
מנוחה	324	מנוחה	Menucha	Менуха	منوحاه	Menuja	7	45	31.6562	34.7773
מנוף	1366	מנוף	Manof	Маноф	مانوف	Manof	16	60	32.8533	35.2374
מנות	1555	מנות	Manot	Манот	مانوت	Manot	6	0	33.0387	35.1952
מנחמיה	1167	מנחמיה	Menahemia	Менахемия	منحميه	Menajemia	25	60	32.6643	35.5553
מנחת מחניים	1508	מנחת מחניים	Machanaim landing pad	Маханаим посадочная площад	مهبط محانايم	Pista de Aterrizaje Machanaim	1	30	32.9781	35.572
מנרה	1636	מנרה	Manara	Манара	مناره	Manara	6	0	33.1954	35.5437
מנשית זבדה	1204	מנשית זבדה	Manshiya Zabda	Маншия Забда	منشية زبدة	Manshiya Zabda	34	60	32.7062	35.1924
מסד	1371	מסד	Massad	Массад	مساد	Massad	16	60	32.8442	35.4232
מסדה	1189	מסדה	Masada	Масада	مساده	Masada	10	30	32.6823	35.5977
מסילות	1049	מסילות	Messilot	Месилот	مسيلوت	Messilot	25	60	32.4974	35.4747
מסילת ציון	489	מסילת ציון	Mesillat Zion	Месилат Цион	مسيلوت تسيون	Mesillat Zion	3	90	31.8014	35.0095
מסלול	162	מסלול	Maslul	Маслуль	مسلول	Maslul	17	30	31.3253422	34.5885811
מסעדה	1655	מסעדה	Mas'ade	Масаде	مسعده	Mas'ade	28	0	33.2321	35.7556
מע'אר	1393	מעאר	Maghar	Магар	المغار	Maghar	16	60	32.8907	35.4046
מעברות	953	מעברות	Ma'abarot	Мааборот	معفروت	Ma'abarot	9	90	32.3642	34.9057
מעגלים, גבעולים, מלילות	200	מעגלים, גבעולים, מלילות	Ma'galim, Giv'olim, M'lilot	Маагалим, Гиволим, Мелилот	معجليم ، جبعوليم ، مليلوت	Ma'galim, Giv'olim, M'lilot	17	30	31.392	34.5943
מעגן	1226	מעגן	Ma'agan	Мааган	معجان	Ma'agan	10	30	32.7063	35.6006
מעגן מיכאל	1072	מעגן מיכאל	Ma'agan Michael	Мааган Михаэль	معجان ميخائيل	Ma'agan Michael	5	90	32.5587	34.9178
מעוז חיים	1052	מעוז חיים	Maoz Haim	Маоз Хаим	معوز حييم	Maoz Jaim	25	60	32.4941	35.5508
מעון	211	מעון	Ma'on	Маон	معون	Ma'on	14	90	31.4146	35.1639
מעון צופיה	1761	מעון צופיה	Maon Tzofia	Маон Цофия	مكان اقامة تستوفيا	Maon Tzofia	7	60	31.8557	34.7379
מעונה	1534	מעונה	Maona	Маона	معوناه	Maona	6	0	33.0169	35.2636
מעיין ברוך	1658	מעיין ברוך	Ma'ayan Baruch	Мааян Барух	معيان باروخ	Ma'ayan Baruj	6	0	33.2393	35.6094
מעיין צבי	1088	מעיין צבי	Ma'ayan Zvi	Мааян Цви	معيان تسفي	Ma'ayan Zvi	5	90	32.5685	34.9406
מעיליא	1540	מעיליא	Mi'ilya	Миилия	معليا	Mi'ilya	6	0	33.0272	35.2563
מעלה אדומים	454	מעלה אדומים	Ma'aleh Edomim	Маале Адумим	معليه أدوميم	Ma'aleh Edomim	14	90	31.7774	35.298
מעלה אפרים	775	מעלה אפרים	Ma'aleh Ephraim	Маале Эфраим	معليه افرايم	Ma'aleh Ephraim	29	90	32.0713	35.4039
מעלה גלבוע	1024	מעלה גלבוע	Ma'aleh Gilboa	Маале Гильбоа	معليه جلبوع	Ma'aleh Gilboa	25	60	32.4761	35.4206
מעלה גמלא	1411	מעלה גמלא	Ma'aleh Gamla	Маале Гамла	معليه جملا	Ma'aleh Gamla	10	15	32.8883	35.686
מעלה החמישה	526	מעלה החמישה	Ma'aleh HaHamisha	Маале ха-Хамиша	معليه هحميشا	Ma'aleh HaJamisha	3	90	31.8174	35.1094
מעלה חבר	243	מעלה חבר	Ma'ale Hever	Маале Хевер	معاليه حيفر	Ma'ale Jever	14	90	31.4871	35.1651
מעלה לבונה	750	מעלה לבונה	Ma'aleh Levona	Маале Левона	معليه لبونا	Ma'aleh Levona	11	90	32.0544	35.2395
מעלה מכמש	1776	מעלה מכמש	Ma'aleh Michmash	Маале Михмаш	معليه مخمش	Ma'aleh Mijmash	11	90	31.8791	35.3059
מעלה עירון	1075	מעלה עירון	Ma'aleh Iron	Маале Ирон	معليه عيرون	Ma'aleh Iron	15	90	32.5541	35.1825
מעלה עמוס	294	מעלה עמוס	Ma'aleh Amos	Маале Амос	معليه عاموس	Ma'aleh Amos	14	90	31.5969	35.2294
מעלה צביה	1409	מעלה צביה	Ma'aleh Zvia	Маале Цвия	معليه تسفيا	Ma'aleh Zvia	16	60	32.8894	35.3314
מעלה רחבעם	1923	מעלה רחבעם	Ma'ale Rekhav'am	Маале Рехва'м	معلي رحبعم	Ma'ale Rekhav'am	14	90	31.6494	35.2589
מעלה שומרון	845	מעלה שומרון	Ma'aleh Shomron	Маале Шомрон	معاليه شومرون	Ma'aleh Shomron	11	90	32.1654	35.0697
מעלות תרשיחא	1523	מעלות תרשיחא	Ma'a lot Tarshicha	Маалот Таршиха	معلوت ترشيحا	Ma'a lot Tarshija	6	0	33.015	35.276
מענית	1007	מענית	Ma'anit	Маанит	معنيت	Ma'anit	5	90	32.458	35.0266
מעש	747	מעש	Maas	Мааш	معش	Maas	18	90	32.0635	34.8926
מפלסים	244	מפלסים	Mefalsim	Мефалсим	مفلسيم	Mefalsim	13	15	31.5022	34.5617
מצדה	170	מצדה	Massada	Массада	متساده	Massada	12	90	31.3114	35.3627
מצובה	1570	מצובה	Metzuba	Мецуба	متسوفا	Metzuba	6	0	33.0623	35.1557
מצוקי דרגות	295	מצוקי דרגות	Metzokei Dragot	Мецокей Драгот	متسوكي دراجوت	Metzokei Dragot	12	90	31.591	35.3933
מצליח	1783	מצליח	Matzliach	Мацлиах	متسليح	Matzliaj	23	90	31.9064	34.8713
מצפה	1323	מצפה	Mitzpeh	Мицпе	متسبي	Mitzpeh	4	60	32.79	35.5079
מצפה אבי''ב	1353	מצפה אביב	Mitzpeh Aviv	Мицпе Авив	متسبي أفيف	Mitzpeh Aviv	16	60	32.837951	35.201059
מצפה אילן	1016	מצפה אילן	Mitzpeh Ilan	Мицпе Илан	متسبيه إيلان	Mitzpeh Ilan	15	90	32.4614	35.0689
מצפה יריחו	541	מצפה יריחו	Mitzpeh Yericho	Мицпе Йерихо	متسبي يريحو	Mitzpeh Yerijo	14	90	31.8157	35.3954
מצפה נטופה	1329	מצפה נטופה	Mitzpeh Netofa	Мицпе Нетофа	متسبي نتوفا	Sakhnin	16	60	32.8017	35.3835
מצפה רמון	38	מצפה רמון	Mitzpeh Ramon	Мицпе Рамон	متسفي رمون	Mitzpeh Ramon	2	90	30.6102	34.8019
מצפה שלם	280	מצפה שלם	Mitzpeh Shalem	Мицпе Шалем	متسبي شلم	Mitzpeh Shalem	12	90	31.5689	35.4004
מצר	994	מצר	Metzer	Мецер	ميتسر	Metzer	15	90	32.4402	35.0477
מקווה ישראל	715	מקווה ישראל	Mikveh Israel	Микве Исраэль	مكفيه اسرائيل	Mikveh Israel	18	90	32.03	34.7829
מרגליות	1642	מרגליות	Margaliot	Маргалиот	مرجليوت	Margaliot	6	0	33.2165	35.5444
מרום גולן	1622	מרום גולן	Merom Golan	Мером Голан	مروم جولان	Merom Golan	28	0	33.1326	35.7771
מרחב עם	58	מרחב עם	Merhav Am	Мерхав Ам	مرحاف عام	Merjav Am	2	90	30.888	34.8282
מרחביה מושב	1118	מרחביה מושב	Merhavia Moshav	Мерхавия Мошав	مرحافيا موشاف	Merjavia Moshav	34	60	32.6048	35.316
מרחביה קיבוץ	1119	מרחביה קיבוץ	Merhavia Kibbutz	Мерхавия Киббуц	مرحافيا كيبوتس	Merjavia Kibbutz	34	60	32.6059	35.3073
מרחצאות עין גדי	218	מרחצאות עין גדי	Ein Gedi Baths	Эйн Геди спа	حمامات عين جدي	banos de Ein Gedi	12	90	31.4173	35.3785
מרכז אזורי מגילות	1716	מרכז אזורי מגילות	Megilot Regional Center	Регеональный центр Мегилот	مركز أقليمي منطقة مجيلوت	Megilot Regional Center	12	90	31.7738	35.5038
מרכז אזורי משגב	1378	מרכז אזורי משגב	Misgav Regional Center	Районный центр Мисгав	المركز الاقليمي مسجاف	Centro Regional Misgav	16	60	32.8588	35.2598
מרכז ימי קיסריה	1043	מרכז ימי קיסריה	Caesarea Marine Center	Морской центр Кейсария	مركز بحري قيساريا	Centro Marino Caesarea	5	90	32.5017	34.8925
מרכז מיר''ב	1144	מרכז מירב	Merav Center	Центр Мерав	مركز ميراب	Merav Centro	22	60	32.64726	34.964089
מרכז שפירא	366	מרכז שפירא	Merkaz Shapira	Центр Шапира	مركز شفيرا	Merkaz Shapira	7	45	31.6969	34.7073
מרעית	150	מרעית	Mar'it	Мар'ит	مرعيت	Mar'it	2	90	31.2812	35.0534
משאבי שדה	77	משאבי שדה	Mashabei Sadeh	Машавей Саде	مشأفي ساديه	Mashabei Sadeh	2	90	31.004	34.785
משגב דב	502	משגב דב	Misgav Dov	Мисгав Дов	مسجاف دوف	Misgav Dov	7	60	31.8191	34.7392
משגב עם	1661	משגב עם	Misgav Am	Мисгав Ам	مسجاف عام	Misgav Am	6	0	33.2476	35.5485
משהד	1248	משהד	Mashhad	Машхад	المشهد	Mashhad	34	60	32.7389	35.3225
משואה	799	משואה	Masua	Масуа	مسوأه	Masua	29	90	32.1124	35.4914
משואות יצחק	365	משואות יצחק	Masuot Itzhak	Масуот Ицхак	مسوؤت يتسحاق	Masuot Itzhak	7	45	31.7026	34.69
משכיות	933	משכיות	Maskiot	Маскиот	مشخيوت	Maskiot	29	90	32.3179	35.5028
משמר איילון	580	משמר איילון	Mishmar Ayalon	Мишмар Аялон	مشمار أيلون	Mishmar Ayalon	23	90	31.8725	34.9433
משמר דוד	524	משמר דוד	Mishmar David	Мишмар Давид	مشمار دافيد	Mishmar David	23	90	31.8236	34.9007
משמר הירדן	1539	משמר הירדן	Mishmar HaYarden	Мишмар ха-Ярден	مشمار هيردن	Mishmar HaYarden	1	30	33.0035	35.5983
משמר הנגב	184	משמר הנגב	Mishmar HaNegev	Мишмар ха-Негев	مشمار هنيجف	Mishmar HaNegev	24	45	31.3648	34.718
משמר העמק	1116	משמר העמק	Mishmar HaEmek	Мишмар ха-Эмек	مشمار هعيمك	Mishmar HaEmek	15	90	32.6101	35.1427
משמר השבעה	702	משמר השבעה	Mishmar HaShiva	Мишмар ха-Шива	مشمار هشبفعاه	Mishmar HaShiva	23	90	32.0109	34.8223
משמר השרון	952	משמר השרון	Mishmar HaSharon	Мишмар ха-Шарон	مشمار هشرون	Mishmar HaSharon	9	90	32.3563	34.9043
משמרות	1030	משמרות	Mishmarot	Мишмарот	مشمورت	Mishmarot	5	90	32.4865	34.9839
משמרת	874	משמרת	Mishmeret	Мишмерет	مشمورت	Mishmeret	9	90	32.2276	34.9221
משען	321	משען	Mishan	Мишан	مشعان	Mishan	21	30	31.6569	34.6216
מתחם בני דרום	1714	מתחם בני דרום	Bnei Darom Compound	Участок Бней Дрор	مجمع بني دروم	Compuesto Bnei Darom	7	60	31.8233	34.6994
מתחם פי גלילות	1751	מתחם פי גלילות	Gelilot - Pi Compound	Участок Пи а Глилот	مجمع في جليلوت 	Gelilot - Pi Compound	18	90	32.1384	34.8045
מתחם צומת שוקת	165	מתחם צומת שוקת	Shoket Junction Center	Центр Перекресток Шокет	منطقة مفرق شوكات	Centro de Union Shoket	24	90	31.3095	34.8982
מתן	830	מתן	Matan	Матан	متان	Matan	9	90	32.1594	34.9732
מתת	1558	מתת	Matat	Матат	متات	Matat	6	0	33.0417	35.3567
מתתיהו	1821	מתתיהו	Matityahu	Матитьягу	ماتحياهو	Matityahu	20	90	31.9297	35.035
נאות גולן	1324	נאות גולן	Neot Golan	Неот Голан	نؤوت جولان	Neot Golan	10	15	32.787	35.6932
נאות הכיכר	1772	נאות הכיכר	Neot HaKikar	Неот ха-Кикар	نؤوت هكيكار	Neot HaKikar	12	90	30.9334	35.3781
נאות מרדכי	1626	נאות מרדכי	Neot Mordechai	Неот Мордехай	نؤوت مردخاي	Neot Mordejai	6	0	33.1598	35.5956
נאות סמדר	27	נאות סמדר	Neot Smadar	Неот Смадар	نؤوت سمدار	Neot Smadar	27	90	30.0491	35.0281
נעורה	1121	נעורה	Na'ura	Наура	الناعورة	Na'ura	34	60	32.6082	35.3937
נבטים	125	נבטים	Nevatim	Неватим	نفاتيم	Nevatim	24	90	31.2198	34.8825
נבי סמואל	548	נבי סמואל	Nebi Samuel	Неби Самуэль	نفي سموئيل	Nebi Samuel	32	90	31.8329	35.1811
נגבה	334	נגבה	Negba	Негба	نجبا	Negba	7	30	31.6625	34.6796
נגוהות	246	נגוהות	Negohot	Негохот	نجوهوت	Negohot	14	60	31.4931	34.9833
נהורה	309	נהורה	Nehora	Неора	نهورا	Nehora	7	30	31.6213	34.7045
נהלל	1174	נהלל	Nahalal	Нахалаль	نهلال	Nahalal	34	60	32.6908	35.1961
נהריה	1499	נהריה	Nahariya	Нагария	نهاريا	Nahariya	6	15	33.0085	35.0981
נוב	1364	נוב	Nov	Нов	نوف	Nov	10	0	32.8329	35.7836
נוגה	308	נוגה	Noga	Нога	نوجه	Noga	7	30	31.6257	34.6953
נווה	99	נווה	Naveh	Наве	نافيه	Naveh	13	30	31.1622	34.3298
נווה אור	1108	נווה אור	Neveh Or	Неве Ор	نافيه أور	Neveh Or	25	60	32.589	35.5545
נווה אטי''ב	1668	נווה אטיב	Neveh Ativ	Неве Атив	نافيه أطيب	Neveh Ativ	28	0	33.26202	35.740574
נווה אילן	507	נווה אילן	Neveh Ilan	Неве Илан	نافيه إيلان	Neveh Ilan	3	90	31.8076	35.0809
נוה איתן	1051	נוה איתן	Neve Eitan	Неве Ейтан	نافة أيتان	Neve Eitan	25	60	32.4917	35.5322
נווה דניאל	361	נווה דניאל	Neveh Daniel	Неве Даниэль	نافيه دانيئيل	Neveh Daniel	14	90	31.6763	35.1433
נווה זוהר	104	נווה זוהר	Neveh Zohar	Неве Зохар	نافيه زوهر	Neveh Zohar	12	90	31.1521	35.3648
נווה זיו	1546	נווה זיו	Neveh Ziv	Неве Зив	نافيه زيف	Neveh Ziv	6	0	33.0274	35.1843
נווה חריף	26	נווה חריף	Neveh Harif	Неве Хариф	نافيه حريف	Neveh Jarif	27	90	30.0398	35.0365
נווה ים	1169	נווה ים	Neveh Yam	Неве Ям	نافيه يام	Neveh Yam	22	60	32.6798	34.9319
נווה ימין	843	נווה ימין	Neveh Yamin	Неве Ямин	نافيه يمين	Neveh Yamin	9	90	32.1717	34.9394
נווה ירק	813	נווה ירק	Neveh Yarak	Неве Ярак	نافيه ييرك	Neveh Yarak	9	90	32.1327	34.9255
נווה מבטח	481	נווה מבטח	Neveh Mivtach	Неве Мивтах	نافيه مبطاح	Neveh Mivtaj	7	60	31.8068	34.7412
נווה מיכאל - רוגלית	355	נווה מיכאל - רוגלית	Neveh Michael (Rogalit)	Неве Михаэль (Рогалит)	نافيه مبيخائيل (روجليت)	Neve Mijael (Rogalit)	3	90	31.6728	35.0037
נווה שלום	525	נווה שלום	Neveh Shalom	Неве Шалом	نافيه شالوم	Neveh Shalom	3	90	31.8174	34.9783
נועם	274	נועם	Noam	Ноам	نوعام	Noam	7	45	31.5686	34.7882
נוף איילון	581	נוף איילון	Noff Ayalon	Ноф Аялон	نوف أيالون	Noff Ayalon	20	90	31.8712	34.9913
נופי נחמיה	796	נופי נחמיה	Nofei Nehemiah	Нофей Нехемия	نوفيه نحاميه	Nofei NeJemiah	11	90	32.0982	35.2359
נופי פרת	539	נופי פרת	Nofei Prat	Нофей Порат	نوفي فرت	Nofei Prat	14	90	31.8235	35.3199
נופים	832	נופים	Nofim	Нофим	نوفيم	Nofim	11	90	32.1555	35.0998
נופית	1273	נופית	Nofit	Нофит	نوفيت	Nofit	34	60	32.7634	35.1483
נופך	733	נופך	Nofech	Нофех	نوفخ	Nofej	20	90	32.0437	34.9203
נוקדים	331	נוקדים	Nokdim	Нокдим	نوكديم	Nokdim	14	90	31.6458	35.2504
נורדיה	921	נורדיה	Nordia	Нордия	نورديه	Nordia	9	90	32.3147	34.8968
נורית	1078	נורית	Nurit	Нурит	نوريت	Nurit	34	60	32.5432	35.3558
נחושה	316	נחושה	Nehusha	Нехуша	نحوشا	Nehusha	3	60	31.6288	34.9527
נחל עוז	234	נחל עוז	Nachal Oz	Нахаль Оз	ناحل عوز	Najal Oz	13	15	31.4727	34.4977
נחלה	337	נחלה	Nachla	Нахла	نحالا	Najla	7	45	31.66	34.7928
נחליאל	1856	נחליאל	Nachliel	Нахлиэль	ناحليئل	Najliel	11	90	31.9735	35.1404
נחלים	738	נחלים	Nechalim	Нехалим	نحليم	Nejalim	20	90	32.0586	34.9136
נחם	442	נחם	Naham	Нахам	نوحم	Najam	3	90	31.7665	35.0036
נחף	1443	נחף	Nachaf	Нахаф	نحف	Najaf	1	30	32.9347	35.3165
נחשולים	1114	נחשולים	Nachsholim	Нахшолим	نحشوليم	Najsholim	22	60	32.6131	34.9222
נחשון	537	נחשון	Nachshon	Нахшон	نحشون	Najshon	3	90	31.8316	34.956
נחשונים	748	נחשונים	Nachshonim	Нахшоним	نحشونيم	Najshonim	20	90	32.0632	34.947
נטועה	1585	נטועה	Netua	Нетуа	نتوعاه	Netua	6	0	33.0654	35.3234
נטור	1383	נטור	Natur	Натур	ناطور	Natur	10	0	32.8541	35.7526
נטע	242	נטע	Neta	Нета	نيطع	Neta	14	60	31.4761	34.9268
נטעים	1818	נטעים	Neta'im	Нетаим	نتاعيم	Neta'im	23	90	31.9457	34.7751
נטף	546	נטף	Nataf	Натаф	نطاف	Nataf	3	90	31.8313	35.0696
ניל''י	1845	נילי	Nili	Нили	نيلي	Nili	11	90	31.963415	35.04727
נין	1140	נין	Nin	Нин	نين	Nin	34	60	32.631	35.3494
ניצן	404	ניצן	Nitzan	Ницан	نيتسان	Nitzan	21	45	31.7375	34.6308
ניצנה	55	ניצנה	Nitzana	Ницана	نيتسانه	Nitzana	2	60	30.886	34.4226
ניצני עוז	919	ניצני עוז	Nitzanei Oz	Ницаней Оз	نيتسني عوز	Nitzanei Oz	9	90	32.3061	35.0033
ניצנים	376	ניצנים	Nitzanim	Ницарим	نيتسانيم	Nitzanim	21	30	31.7178	34.6346
ניר אליהו	859	ניר אליהו	Nir Eliyahu	Нир Элиягу	نير الياهو	Nir Eliyahu	9	90	32.1976	34.9494
ניר בנים	346	ניר בנים	Nir Banim	Нир Баним	نير بنيم	Nir Banim	7	45	31.6712	34.755
ניר גלים	517	ניר גלים	Nir Galim	Нир Галим	نير جليم	Nir Galim	7	45	31.8255	34.6825
ניר דוד	1055	ניר דוד	Nir David	Нир Давид	نير دافيد	Nir David	25	60	32.5041	35.4576
ניר ח''ן	292	ניר חן	Nir Chen	Нир Хен	نير حين	Nir Jen	7	30	31.608906	34.714282
ניר יצחק	134	ניר יצחק	Nir Itzhak	Нир Ицхак	نير يتسحاك	Nir Itzjak	13	15	31.236	34.3567
ניר ישראל	357	ניר ישראל	Nir Israel	Нир Исраэль	نير اسرائيل	Nir Israel	21	30	31.6922	34.6381
ניר משה	241	ניר משה	Nir Moshe	Нир Моше	نير موشيه	Nir Moshe	17	30	31.4775	34.6301
ניר עוז	159	ניר עוז	Nir Oz	Нир Оз	نير عوز	Nir Oz	13	15	31.3097	34.4021
ניר עציון	1192	ניר עציון	Nir Etzion	Нир Эцион	نير عتسيون	Nir Etzion	22	60	32.6991	34.9925
ניר עקיבא	236	ניר עקיבא	Nir Akiva	Нир Акива	نير عكيفا	Nir Akiva	17	30	31.4699	34.6462
ניר צבי	1829	ניר צבי	Nir Zvi	Нир Цви	نير تسفي	Nir Zvi	23	90	31.9544	34.8615
נירים	171	נירים	Nirim	Нирим	نيريم	Nirim	13	15	31.3357	34.3941
נירית	823	נירית	Nirit	Нирит	نيريت	Nirit	9	90	32.1462	34.9848
נמרוד	1664	נמרוד	Nimrod	Нимрод	نمرود	Nimrod	28	0	33.2453	35.7516
נס הרים	423	נס הרים	Ness Harim	Нес Харим	نس هاريم	Ness Harim	3	90	31.7442	35.0594
נס עמים	1480	נס עמים	Ness Amim	Нес Амос	نس عاميم	Ness Amim	1	30	32.9655	35.1216
נס ציונה	1795	נס ציונה	Ness Ziona	Нес Циона	نس تسيونا	Ness Ziona	23	90	31.9321	34.8013
נעורים	957	נעורים	Neurim	Неурим	نعوريم	Neurim	9	90	32.3713	34.8614
נעלה	1846	נעלה	Na'aleh	Наале	نعلاه	Na'aleh	11	90	31.9626	35.066
נעמה	1805	נעמה	Na'ama	Наама	نعماه	Na'ama	29	90	31.9076	35.4662
נען	590	נען	Na'an	Наан	ناعن	Na'an	23	90	31.8832	34.8592
נערן	1858	נערן	Niran	Ниран	نعران	Niran	29	90	31.9682	35.4539
נצר חזני	523	נצר חזני	Netzer Hazani	Нецер Хазани	نيتسر حزاني	Netzer Jazani	23	90	31.8214	34.8626
נצר סרני	1796	נצר סרני	Netzer Sireni	Нецер Сирени	نيتسر سراني	Netzer Sireni	23	90	31.9228	34.8212
נצרת	1177	נצרת	Nazareth	Нацерет	الناصرة	Nazareth	34	60	32.6996	35.3035
נוף הגליל	1186	נוף הגליל	Nof HaGalil	Ноф Хагалиль	نوف هجليل	Nof HaGalil	34	60	32.71	35.3227
נריה	1835	נריה	Neria	Нерия	نريا	Neria	11	90	31.954293	35.127604
נשר	1271	נשר	Nesher	Нешер	نيشر	Nesher	19	60	32.7649	35.0492
נתיב הגדוד	700	נתיב הגדוד	Netiv HaGdud	Нетив ха-Гдуд	نتيف هجدود	Netiv HaGdud	29	90	31.9894	35.4433
נתיב הל''ה	370	נתיב הלה	Netiv HaLamed-Heh	Нетив ха-Ламед-Хей	نتيف هيلا	Netiv HaLamed-Heh	3	90	31.687184	34.982523
נתיב העשרה	272	נתיב העשרה	Netiv HaAssara	Нетив ха-Асара	نتيف هعسراه	Netiv HaAssara	13	15	31.5724	34.5393
נתיב השיירה	1501	נתיב השיירה	Netiv HaShayara	Нетив ха-Шаяра	نتيف هشيرا	Netiv HaShayara	1	30	32.9912	35.1307
נתיבות	206	נתיבות	Netivot	Нетивот	نتيفو	Netivot	17	30	31.4232	34.5953
נתניה - מזרח	913	נתניה - מזרח	Netanya - East	Нетания - восток	نتانيا - شرق	Netanya - Este	9	90	32.3001	34.8727
נתניה - מערב	920	נתניה - מערב	Netanya - West	Нетания - запад	نتانيا- غرب	Netanya - Oeste	9	90	32.3095	34.8542
סאג'ור	1451	סאגור	Sajur	Саджур	ساجور	Sajur	1	30	32.9431	35.3436
סאסא	1548	סאסא	Sassa	Саса	سعسع	Sassa	6	0	33.0287	35.3946
סביון	726	סביון	Savyon	Савьон	سفيون	Savyon	18	90	32.0456	34.8766
סגולה	347	סגולה	Sgula	Сгула	سجولا	Sgula	7	45	31.6695	34.7784
סואעד חמירה	1284	סואעד חמירה	Sawad Humeria	Сауад Хумейра	سواعد حميرة	Sawad Jumeria	34	60	32.7669	35.1682
סולם	1120	סולם	Sulam	Сулам	سولم	Sulam	34	60	32.6056	35.3343
סוסיא	205	סוסיא	Susya	Сусия	سوسيا	Susya	14	90	31.3866	35.1204
סופה	133	סופה	Sufa	Суфа	سوفه	Sufa	13	15	31.2383	34.342
סינמה סיטי גלילות	1927	סינמה סיטי גלילות	Cinema City Glilot	Синема-Сити Глилот	سيناما سيتي جليلوت	Cinema City Glilot	18	90	32.1473	34.8063
סכנין	1380	סכנין	Sakhnin	Сахнин	سخنين	Sajnin	16	60	32.8642	35.2945
סלמה	1401	סלמה	Salama	Салама	سلامه	Salama	16	60	32.8932	35.3705
סלעית	882	סלעית	Salit	Салит	سلعيت	Salit	9	90	32.2426	35.0513
סמר	16	סמר	Samar	Самар	سمر	Samar	27	90	29.834	35.0222
סנדלה	1068	סנדלה	Sandala	Сандала	صندله	Sandala	34	60	32.5224	35.3244
סנסנה	192	סנסנה	Sansana	Сансана	سنسنه	Sansana	24	60	31.3618	34.901
סעד	235	סעד	Sa'ad	Саад	سعد	Sa'ad	13	15	31.4702	34.5344
סעייה-מולדה	137	סעייה-מולדה והפזורה	Sawwa-Mulada	Сауа Мулада	سعوة - مولادة	Sawwa-Mulada	2	90	31.251	34.9528
סער	1544	סער	Sa'ar	Саар	ساعر	Sa'ar	6	0	33.0287	35.1092
ספיר	39	ספיר	Sapir	Сапир	سفير	Sapir	27	90	30.6139	35.1845
ספסופה - כפר חושן	1537	ספסופה - כפר חושן	Safsufa (Kfar Hoshen)	Сафсуфа (кфар Хошен)	صفصوفة - كفار حوشن	Safsufa (Kfar joshen)	1	30	33.0131	35.4402
סתריה	591	סתריה	Sitria	Ситрия	ستاريه	Sitria	23	90	31.8899	34.8421
עבדון	1564	עבדון	Avdon	Авдон	عبدون	Avdon	6	0	33.0488	35.1791
עבדת	48	עבדת	Ovdat	Овдат	عبدات	Ovdat	2	90	30.7923	34.7687
עברון	1500	עברון	Evron	Эврон	عبرون	Evron	6	15	32.9911	35.1
ע'ג'ר	1667	עגר	Ghajar	Ражар	غجر	Ghajar	6	0	33.2728	35.6242
עגור	369	עגור	Agur	Агур	عاجور	Agur	3	60	31.6975	34.912
עדי	1295	עדי	Adi	Ади	عدي	Adi	34	60	32.7824	35.1734
עדי עד	1724	עדי עד	Adei Ad	Адей Ад	عدي عد	Adei Ad	11	90	32.0398	35.3352
עדנים	812	עדנים	Adanim	Аданим	عدانيم	Adanim	9	90	32.1388	34.9091
עוזה	283	עוזה	Uzza	Уза	عوزة	Uzza	7	30	31.593	34.7645
עוזייר	1311	עוזייר	Uzeir	Узиер	العزير	Uzeir	16	60	32.7906	35.3269
עולש	931	עולש	Olesh	Олеш	عولش	Olesh	9	90	32.332	34.9853
עומר	147	עומר	Omer	Омер	عومر	Omer	24	60	31.2643	34.8499
עופר	1123	עופר	Ofer	Офер	عوفر	Ofer	22	60	32.6219	34.9835
עופרים	714	עופרים	Ofarim	Офарим	عوفريم	Ofarim	11	90	32.0186	35.0446
עוצם	312	עוצם	Otzem	Оцем	عوتسم	Otzem	7	30	31.6377	34.7051
עזוז	47	עזוז	Azuz	Азуз	عزوز	Azuz	2	90	30.7922	34.4724
עזר	405	עזר	Ezer	Эзер	عازر	Ezer	7	45	31.7362	34.6714
עזריאל	895	עזריאל	Azriel	Азриэль	عزريئيل	Azriel	9	90	32.2628	34.9711
עזריה	592	עזריה	Azaria	Азария	عازاريه	Azaria	23	90	31.8905	34.9119
עזריקם	417	עזריקם	Azrikam	Азрикам	عزريكم	Azrikam	7	45	31.7517	34.6948
עטרת	706	עטרת	Atteret	Атерет	عطرت	Atteret	11	90	32.0012	35.177
עידן	50	עידן	Idan	Идан	عيدان	Idan	27	90	30.8063	35.2999
עיינות	1793	עיינות	Ayanot	Аянот	عينوت	Ayanot	23	90	31.9158	34.7681
עילבון	1356	עילבון	Eilabun	Эйлабун	عيلبون	Eilabun	16	60	32.8379	35.4
עילוט	1218	עילוט	Ilut	Илут	عيلوط	Ilut	34	60	32.7173	35.2615
עין איילה	1129	עין איילה	Ein Ayala	Эйн Аяла	عين أييلا	Ein Ayala	22	60	32.63	34.9443
עין אל אסד	1453	עין אל אסד	Ein al-Asad	Эйн аль Асад	عين الأسد	Ein al-Asad	1	30	32.9408	35.401
עין אל-סהלה	1041	עין אל-סהלה	Ein as-Sahla	Эйн Ас-Сахла	عين السهلة	Ein as-Sahla	15	90	32.4915	35.1175
עין בוקק	119	עין בוקק	Ein Bokek	Эйн Бокек	عين بوكك	Ein Bokek	12	90	31.2002	35.3625
עין גב	1299	עין גב	Ein Gev	Эйн Гев	عين جيف	Ein Gev	10	15	32.7834	35.6401
עין גדי	233	עין גדי	Ein Gedi	Эйн Геди	عين جدي	Ein Gedi	12	90	31.4512	35.3836
עין דור	1160	עין דור	Ein Dor	Эйн Дор	عين دور	Ein Dor	34	60	32.6555	35.4164
עין הבשור	151	עין הבשור	Ein HaBsor	Эйн ха-Бсор	عين هبسور	Ein HaBsor	13	15	31.2809	34.4434
עין הוד	1190	עין הוד	Ein Hod	Эйн Од	عين هود	Ein Hod	22	60	32.7003	34.9827
עין החורש	969	עין החורש	Ein HaHoresh	Эйн ха-Хореш	عين هحورش	Ein HaJoresh	9	90	32.3859	34.94
עין המפרץ	1404	עין המפרץ	Ein HaMifratz	Эйн ха-Мифрац	عين همفراتس	Ein HaMifratz	1	30	32.9026	35.093
עין הנצי''ב	1027	עין הנציב	Ein HaNatziv	Эйн ха-Нацив	عين هنتسيف	Ein HaNatziv	25	60	32.47071	35.501973
עין העמק	1132	עין העמק	Ein HaEmek	Эйн ха-Эмек	عين هعيمك	Ein HaEmek	15	90	32.6297	35.0822
עין השופט	1103	עין השופט	Ein HaShofet	Эйн ха-Шофет	عين هشوفط	Ein HaShofet	15	90	32.5968	35.1004
עין השלושה	178	עין השלושה	Ein HaShlosha	Эйн ха-Шлоша	عين هشلوشا	Ein HaShlosha	13	15	31.3517	34.4035
עין ורד	893	עין ורד	Ein Vered	Эйн Веред	عين ورد	Ein Vered	9	90	32.2645	34.9307
עין זיוון	1610	עין זיוון	Ein Zivan	Эйн Зиван	عين زيفان	Ein Zivan	28	0	33.0965	35.7963
עין חוד	1182	עין חוד	Ein Chod	Эйн Ход	عين حود	Ein Jod	22	60	32.6914	34.9991
עין חצבה	49	עין חצבה	Ein Hatzeva	Эйн Хацева	عين حتسفا	Ein Hatzeva	27	90	30.7972	35.2453
עין חרוד	1093	עין חרוד	Ein Harod	Эйн Харод	عين حيروت	Ein Jarod	34	60	32.5631	35.3917
עין יהב	44	עין יהב	Ein Yahav	Эйн Яхав	عين ياهاف	Ein Yahav	27	90	30.6588	35.2397
עין יעקב	1533	עין יעקב	Ein Yacov	Эйн Яаков	عين يعقوب	Ein Yacov	6	15	33.0093	35.229
עין כמונים	1438	עין כמונים	Ein Kamonim	Эйн Камоним	عين كمونيم	Ein Kamonim	1	30	32.9194	35.4301
עין כרמל	1162	עין כרמל	Ein Carmel	Эйн Кармель	عين كرمل	Ein Carmel	22	60	32.6779	34.9537
עין מאהל	1221	עין מאהל	Ein Mahil	Эйн Махель	عين ماهل	Ein Mahil	34	60	32.7243	35.3534
עין נקובא	493	עין נקובא	Ein Naqquba	Эйн Наккуба	عين نقوبا	Ein Naqquba	3	90	31.7939	35.1197
עין עירון	1032	עין עירון	Ein Iron	Эйн Ирон	عين عيرون	Ein Iron	5	90	32.4844	35.0101
עין צורים	367	עין צורים	Ein Tzurim	Эйн Цурим	عين تسوريم	Ein Tzurim	7	45	31.6949	34.7187
עין קנייא	1654	עין קנייא	Ein Quiniyye	Эйн Киния	عين قينيا	Ein Quiniyye	28	0	33.2367	35.7313
עין ראפה	475	עין ראפה	Ein Rafa	Эйн Рафа	عين رافا	Ein Rafa	3	90	31.7906	35.1165
עין שמר	1005	עין שמר	Ein Shemer	Эйн Шемер	عين شيمر	Ein Shemer	5	90	32.4619	35.0067
עין שריד	906	עין שריד	Ein Sarid	Эйн Сарид	عين سريد	Ein Sarid	9	90	32.2749	34.9342
עין תמר	1775	עין תמר	Ein Tamar	Эйн Тамар	عين تمار	Ein Tamar	12	90	30.9436	35.3741
עינבר	1429	עינבר	Inbar	Инбар	عينبار	Inbar	16	60	32.9097	35.4237
עינת	772	עינת	Einat	Эйнат	عينات	Einat	20	90	32.0819	34.9375
עיר אובות	51	עיר אובות	Ir Ovot	Ир Овот	عير أوفوت	Ir Ovot	27	90	30.809	35.2444
עכו	1423	עכו	Acre	Акко	عكا	Acre	1	30	32.9331	35.0827
עכו - אזור תעשייה	1397	עכו - אזור תעשייה	Acco - Industrial Zone	Акко - промзона	عكا- المنطقة الصناعية	Acre - Area Industrial	1	30	32.8984	35.0863
עלומים	219	עלומים	Alumim	Алумим	علوميم	Alumim	13	15	31.453	34.5147
עלי	764	עלי	Eli	Эли	علي	Eli	11	90	32.0712	35.2669
עלי זהב	763	עלי זהב	Elei Zahav	Алей Захав	علي زاهاف	Elei Zahav	11	90	32.0722	35.0641
עלמה	1576	עלמה	Alma	Альма	علماه	Alma	6	0	33.0519	35.4996
עלמון	549	עלמון	Almon	Альмон	علمون	Almon	14	90	31.8321	35.2968
עמוקה	1528	עמוקה	Amuka	Амука	عموكاه	Amuka	1	30	32.9977	35.5248
עמיחי	1894	עמיחי	Amichai	Амихай	عمينحاي	Amichai	11	90	32.0464	35.3283
עמינדב	428	עמינדב	Aminadav	Аминадав	عمينداف	Aminadav	32	90	31.7517	35.1424
עמיעד	1445	עמיעד	Amiad	Амиад	عميعاد	Amiad	1	30	32.9304	35.5405
עמיקם	1089	עמיקם	Amikam	Амикам	عميكام	Amikam	5	90	32.5646	35.0203
עמיר	1633	עמיר	Amir	Амир	عمير	Amir	6	15	33.1777	35.6198
עמנואל	841	עמנואל	Immanuel	Имануель	عمنوئيل	Immanuel	11	90	32.1607	35.136
עמקה	1491	עמקה	Amka	Амка	عمكاه	Amka	1	30	32.9777	35.1618
ענב	912	ענב	Einav	Эйнав	عيناب	Einav	11	90	32.2836	35.1252
עספיא	1200	עספיא	Isfiya	Исфия	عسفيا	Isfiya	22	60	32.7207	35.0591
עפולה	1112	עפולה	Afula	Афула	العفولة	Afula	34	60	32.6105	35.2879
עפרה	1836	עפרה	Ofra	Офра	عوفرا	Ofra	11	90	31.9551	35.2603
עץ אפרים	800	עץ אפרים	Etz Ephraim	Эц Эфраим	عيتس افرايم	Etz Ephraim	9	90	32.1194	35.0464
עצמון - שגב	1385	עצמון - שגב	Atzmon (Segev)	Ацмон (Сегев)	عتسمون (سيجف)	Atzmon (Segev)	16	60	32.8658	35.2523
עראבה	1362	עראבה	Arraba	Араба	عرابه	Arraba	16	60	32.8537	35.3372
ערב אל עראמשה	1593	ערב אל עראמשה	Arab al-Aramshe	Араб Аль-Арамше	عرب العرامشة	Arab al-Aramshe	6	0	33.0888	35.2288
ערב אל-נעים	1408	ערב אל-נעים	Arab al Na'im	Араб эль-Наим	عرب النعيم	Arab al Na'im	16	30	32.8881	35.2901
ערד	143	ערד	Arad	Арад	عراد	Arad	2	90	31.2614	35.2149
ערוגות	396	ערוגות	Arugot	Аругот	عروجوت	Arugot	7	45	31.7328	34.7762
ערערה	1040	ערערה	Ar'ara	Арара	عرعرة	Ar'ara	15	90	32.4963	35.0973
ערערה בנגב	98	ערערה בנגב	Ar'ara BaNegev	Арара в Негеве	عرعرة النقب	Ar'ara BaNegev	2	90	31.1561	35.023
עשאהל	1880	עשאהל	Asa'el	Асаэль	عسأهيل	Asa'el	14	90	31.373	35.0435
עשרת	520	עשרת	Asseret	Асерет	عشرت	Asseret	7	60	31.8249	34.7475
עתלית	1171	עתלית	Atlit	Атлит	عتليت	Atlit	22	60	32.6909	34.9429
עתניאל	229	עתניאל	Otniel	Отниэль	عتنيئل	Otniel	14	90	31.4388	35.0282
פארן	33	פארן	Paran	Паран	فارن	Paran	27	90	30.3626	35.1551
פארק תעשיות פלמחים	1834	פארק תעשיות פלמחים	Palmachin Industrial Park	индустриальный парк Пальма	متنزه تعسيوت بلماحيم	Parque Industrial Palmajim	23	90	31.9532	34.7675
פארק תעשייה ראם	436	פארק תעשייה ראם	Re'em Industrial Park	Индустриальный парк Рам	بارك صناعة رام	Parque Industrial Re'em	7	60	31.7682	34.7552
פדואל	749	פדואל	Paduel	Падуель	بدوئيل	Paduel	11	90	32.0625	35.0526
פדויים	166	פדויים	Pduim	Пдуим	بدوئييم	Pduim	17	45	31.3263	34.6121
פדיה	561	פדיה	Pdaya	Пдая	باديا	Pdaya	23	90	31.8578	34.8838
פוריה כפר עבודה	1237	פוריה כפר עבודה	Poria - Kfar Avoda	Пория Кфар Авода	بوريا كفار عفوداه	Poria - Kfar Avoda	4	60	32.7198	35.5456
פוריה נווה עובד	1256	פוריה נווה עובד	Poria - Neve Oved	Пория Неве Овед	بوريا نافيه عوفيد	Poria - Neve Oved	4	60	32.7438	35.5381
פוריה עילית	1250	פוריה עילית	Poria Illit	Пория Илит	بوريا عيليت	Poria Illit	4	60	32.7327	35.5462
פוריידיס	1099	פוריידיס	Fureidis	Фурадис	الفريديس	Fureidis	22	60	32.5974	34.9519
פורת	901	פורת	Porat	Порат	فورات	Porat	9	90	32.2771	34.9488
פטיש	161	פטיש	Patish	Патиш	فطيش	Patish	17	30	31.3278	34.56
פלך	1440	פלך	Pelekh	Пелех	بيلخ	Pelej	1	30	32.9336	35.233
פלמחים	1817	פלמחים	Palmachim	Пальмахим	بلمحيم	Palmajim	7	90	31.9327	34.7069
פני קדם	289	פני קדם	Pnei Kedem	Пней Кедем	بني كيدم	Pnei Kedem	14	90	31.5895	35.1951
פנימיית עין כרם	465	פנימיית עין כרם	Ein Kerem Boarding School	Интернат Эйн Керем	داخلية عين كارم	Internado Ein Kerem	32	90	31.7788	35.1533
פסגות	1786	פסגות	Psagot	Псагот	بساجوت	Psagot	11	90	31.9	35.2239
פסוטה	1566	פסוטה	Fassuta	Фассута	فسوطة	Fassuta	6	0	33.0478	35.3088
פעמי תש''ז	215	פעמי תשז	Pa'amei Tashaz	Паамей Ташаз	بعامي تشاز	Pa'amei Tashaz	17	30	31.4383	34.6921
פצאל	741	פצאל	Petza'el	Пецаэль	بتسئيل	Petza'el	29	90	32.0435	35.4438
פקיעין	1484	פקיעין	Peki'in	Пекиин	البقيعة	Peki'in	6	15	32.9762	35.3358
פרדס חנה-כרכור	1003	פרדס חנה-כרכור	Pardes Hanna-Karkur	Пардес Хана -Каркур	بردس حنا كركور	Pardes Hanna-Karkur	5	90	32.4753	34.9771
פרדסיה	916	פרדסיה	Pardessiya	Пардесия	فردسيا	Pardessiya	9	90	32.305	34.9117
פרוד	1455	פרוד	Farod	Фарод	فرود	Farod	1	30	32.9331	35.4343
פרי גן	120	פרי גן	Pri Gan	При Ган	بري جان	Pri Gan	13	15	31.222	34.3559
פתח תקווה	785	פתח תקווה	Petach Tikva	Петах Тиква	بيتح تيكفا	Petaj Tikve	18	90	32.084	34.8878
פתחיה	569	פתחיה	Ptachia	Птахия	فتحية	Ptajia	23	90	31.867	34.8869
צאלים	114	צאלים	Ze'elim	Цеэлим	تسئليم	Ze'elim	17	30	31.2039	34.5334
צבעון	1549	צבעון	Zivon	Цивон	تسفعون	Zivon	6	0	33.0264	35.4167
צובה	464	צובה	Tzuba	Цуба	تسوفا	Tzuba	3	90	31.7844	35.118
צוחר, אוהד	136	צוחר, אוהד	Zohar, Ohad	Цохар, Охад	تسوحر ، اوهاد	Zohar, Ohad	13	15	31.2364	34.4287
צופים	860	צופים	Zufim	Цуфим	تسوفيم	Zufim	9	90	32.1979	35.0107
צופית	854	צופית	Tzofit	Цофит	تسوفيت	Tzofit	9	90	32.1949	34.9201
צופר	36	צופר	Tzofar	Цофар	تسوفر	Tzofar	27	90	30.5594	35.1815
צוקים	35	צוקים	Tzukim	Цуким	تسوكيم	Tzukim	27	90	30.4916	35.1654
צור הדסה	390	צור הדסה	Tzur Hadassa	Цур Хадасса	تسور هداسا	Tzur Hadassa	3	90	31.7194	35.097
צור יצחק	880	צור יצחק	Tzur Itzhak	Цур Ицхак	تسور يتسحاق	Tzur Itzjak	9	90	32.2415	34.998
צור משה	914	צור משה	Tzur Moshe	Цур Моше	ثسور موشيه	Tzur Moshe	9	90	32.2989	34.9131
צור נתן	881	צור נתן	Tzur Natan	Цур Натан	تسور ناتان	Tzur Natan	9	90	32.2397	35.014
צוריאל	1535	צוריאל	Tzuriel	Цуриэль	تسوريئل	Tzuriel	6	0	33.0065	35.3148
צורית גילון	1416	צורית גילון	Tzurit Gilon	Цурит Гилон	تسوريت، جيلون	Tzurit Gilon	1	30	32.9043	35.2322
ציפורי	1254	ציפורי	Tzippori	Ципори	تسيبوري	Tzippori	34	60	32.7467	35.2764
צלפון	487	צלפון	Tzalfon	Цальфон	تسلفون	Tzalfon	3	90	31.8056	34.9318
צפריה	1869	צפריה	Tzafria	Цафрия	تسفاريه	Tzafria	23	90	32.0043	34.8547
צפרירים	338	צפרירים	Tzafririm	Цафририм	تسافريريم	Tzafririm	3	60	31.6596	34.9443
צפת	1477	צפת	Safed	Цфат	صفد	Safed	1	30	32.9646	35.496
